istat,comune,lng,lat,join_OBJECTID_1,join_objectid,join_tipo_costa,join_descrizion,join_litologia,join_nome,join_id_interve,join_anno_costr,join_annodismis,join_dim_opera,join_dim_opera_,join_spaz_opera,join_dist_riva,join_flag_modif,join_modifica_o,join_lung_modif,join_area_modif,join_variaz_med,join_variaz_max,join_id_sistema,join_incongruen,join_incertezza,join_acc_geomet,join_annotazion,join_cod_istat,join_nome_uf,join_dataacqort,join_oraacqorto,join_data_igm,join_resp_digit,join_shape_leng,join_globalid,join_SHAPE__Length,join_Shape_Length,distance
"12001",Agra,8.77144627,46.03408765,"34009","33953","3",Sponde del fiume, , ,"0",,"0",0,"0","0","0",No,Nessuna informazione,0,0,0,"0","0",Nessuna,Nessuna,Non verificato, ,"7010025",Genova,1999/11/09 00:00:00, ,Agg. Prec. 1952,G. Montrone,532.40049139,{5F31E3C1-1E99-4A83-8F71-CB833A9493C5},,530.787225632864,177051.815633028
"12002",Albizzate,8.80354799,45.72373624,"34009","33953","3",Sponde del fiume, , ,"0",,"0",0,"0","0","0",No,Nessuna informazione,0,0,0,"0","0",Nessuna,Nessuna,Non verificato, ,"7010025",Genova,1999/11/09 00:00:00, ,Agg. Prec. 1952,G. Montrone,532.40049139,{5F31E3C1-1E99-4A83-8F71-CB833A9493C5},,530.787225632864,142622.668413072
"12003",Angera,8.57505473,45.77248072,"30264","30196","3",Collegamento sponde del fiume, , ,"0",,"0",0,"0","0","0",No,Nessuna informazione,0,0,0,"0","0",Nessuna,Nessuna,Non verificato, ,"7010025",Varazze,1999/11/09 00:00:00, ,Agg. Prec. 1952,G. Montrone,25.28200524,{97113167-9924-4762-ABF5-DC2672A6D252},,25.2051509620287,148622.72857735
"12004",Arcisate,8.85979602,45.85936588,"30262","30194","3",Collegamento sponde del fiume, , ,"0",,"0",0,"0","0","0",No,Nessuna informazione,0,0,0,"0","0",Nessuna,Nessuna,Non verificato, ,"7010025",Genova,1999/11/09 00:00:00, ,Agg. Prec. 1952,G. Montrone,29.70953873,{3BD6FEF5-F9E0-494C-8A31-983AE061EFDB},,29.6194297817173,157862.453685328
"12005",Arsago Seprio,8.73102942,45.68799132,"34009","33953","3",Sponde del fiume, , ,"0",,"0",0,"0","0","0",No,Nessuna informazione,0,0,0,"0","0",Nessuna,Nessuna,Non verificato, ,"7010025",Genova,1999/11/09 00:00:00, ,Agg. Prec. 1952,G. Montrone,532.40049139,{5F31E3C1-1E99-4A83-8F71-CB833A9493C5},,530.787225632864,138600.850671038
"12006",Azzate,8.79686119,45.78197525,"34009","33953","3",Sponde del fiume, , ,"0",,"0",0,"0","0","0",No,Nessuna informazione,0,0,0,"0","0",Nessuna,Nessuna,Non verificato, ,"7010025",Genova,1999/11/09 00:00:00, ,Agg. Prec. 1952,G. Montrone,532.40049139,{5F31E3C1-1E99-4A83-8F71-CB833A9493C5},,530.787225632864,149076.909221898
"12007",Azzio,8.70629682,45.88536153,"34009","33953","3",Sponde del fiume, , ,"0",,"0",0,"0","0","0",No,Nessuna informazione,0,0,0,"0","0",Nessuna,Nessuna,Non verificato, ,"7010025",Genova,1999/11/09 00:00:00, ,Agg. Prec. 1952,G. Montrone,532.40049139,{5F31E3C1-1E99-4A83-8F71-CB833A9493C5},,530.787225632864,160559.015528554
"12008",Barasso,8.75810385,45.84046799,"34009","33953","3",Sponde del fiume, , ,"0",,"0",0,"0","0","0",No,Nessuna informazione,0,0,0,"0","0",Nessuna,Nessuna,Non verificato, ,"7010025",Genova,1999/11/09 00:00:00, ,Agg. Prec. 1952,G. Montrone,532.40049139,{5F31E3C1-1E99-4A83-8F71-CB833A9493C5},,530.787225632864,155533.307738749
"12009",Bardello,8.6982499,45.8350432,"34009","33953","3",Sponde del fiume, , ,"0",,"0",0,"0","0","0",No,Nessuna informazione,0,0,0,"0","0",Nessuna,Nessuna,Non verificato, ,"7010025",Genova,1999/11/09 00:00:00, ,Agg. Prec. 1952,G. Montrone,532.40049139,{5F31E3C1-1E99-4A83-8F71-CB833A9493C5},,530.787225632864,154985.54170553
"12010",Bedero Valcuvia,8.79441299,45.91263579,"34009","33953","3",Sponde del fiume, , ,"0",,"0",0,"0","0","0",No,Nessuna informazione,0,0,0,"0","0",Nessuna,Nessuna,Non verificato, ,"7010025",Genova,1999/11/09 00:00:00, ,Agg. Prec. 1952,G. Montrone,532.40049139,{5F31E3C1-1E99-4A83-8F71-CB833A9493C5},,530.787225632864,163585.805360773
"12011",Besano,8.88994859,45.88923148,"30261","30193","3",Collegamento sponde del fiume, , ,"0",,"0",0,"0","0","0",No,Nessuna informazione,0,0,0,"0","0",Nessuna,Nessuna,Non verificato, ,"7010025",Genova,1999/11/09 00:00:00, ,Agg. Prec. 1952,G. Montrone,47.17820306,{09799A88-40E5-40BC-AAAB-E64BDFF59D26},,47.0383769914515,161304.929945848
"12012",Besnate,8.76940011,45.70035494,"34009","33953","3",Sponde del fiume, , ,"0",,"0",0,"0","0","0",No,Nessuna informazione,0,0,0,"0","0",Nessuna,Nessuna,Non verificato, ,"7010025",Genova,1999/11/09 00:00:00, ,Agg. Prec. 1952,G. Montrone,532.40049139,{5F31E3C1-1E99-4A83-8F71-CB833A9493C5},,530.787225632864,139972.746225374
"12013",Besozzo,8.66515456,45.85161622,"34009","33953","3",Sponde del fiume, , ,"0",,"0",0,"0","0","0",No,Nessuna informazione,0,0,0,"0","0",Nessuna,Nessuna,Non verificato, ,"7010025",Genova,1999/11/09 00:00:00, ,Agg. Prec. 1952,G. Montrone,532.40049139,{5F31E3C1-1E99-4A83-8F71-CB833A9493C5},,530.787225632864,156916.808898909
"12014",Biandronno,8.71232632,45.81939412,"34009","33953","3",Sponde del fiume, , ,"0",,"0",0,"0","0","0",No,Nessuna informazione,0,0,0,"0","0",Nessuna,Nessuna,Non verificato, ,"7010025",Genova,1999/11/09 00:00:00, ,Agg. Prec. 1952,G. Montrone,532.40049139,{5F31E3C1-1E99-4A83-8F71-CB833A9493C5},,530.787225632864,153221.44015878
"12015",Bisuschio,8.87035829,45.8724144,"30262","30194","3",Collegamento sponde del fiume, , ,"0",,"0",0,"0","0","0",No,Nessuna informazione,0,0,0,"0","0",Nessuna,Nessuna,Non verificato, ,"7010025",Genova,1999/11/09 00:00:00, ,Agg. Prec. 1952,G. Montrone,29.70953873,{3BD6FEF5-F9E0-494C-8A31-983AE061EFDB},,29.6194297817173,159356.277985148
"12016",Bodio Lomnago,8.75143295,45.78988982,"34009","33953","3",Sponde del fiume, , ,"0",,"0",0,"0","0","0",No,Nessuna informazione,0,0,0,"0","0",Nessuna,Nessuna,Non verificato, ,"7010025",Genova,1999/11/09 00:00:00, ,Agg. Prec. 1952,G. Montrone,532.40049139,{5F31E3C1-1E99-4A83-8F71-CB833A9493C5},,530.787225632864,149912.933770454
"12017",Brebbia,8.64986902,45.82856738,"34009","33953","3",Sponde del fiume, , ,"0",,"0",0,"0","0","0",No,Nessuna informazione,0,0,0,"0","0",Nessuna,Nessuna,Non verificato, ,"7010025",Genova,1999/11/09 00:00:00, ,Agg. Prec. 1952,G. Montrone,532.40049139,{5F31E3C1-1E99-4A83-8F71-CB833A9493C5},,530.787225632864,154415.799073903
"12018",Bregano,8.69246682,45.82367289,"34009","33953","3",Sponde del fiume, , ,"0",,"0",0,"0","0","0",No,Nessuna informazione,0,0,0,"0","0",Nessuna,Nessuna,Non verificato, ,"7010025",Genova,1999/11/09 00:00:00, ,Agg. Prec. 1952,G. Montrone,532.40049139,{5F31E3C1-1E99-4A83-8F71-CB833A9493C5},,530.787225632864,153735.708597395
"12019",Brenta,8.68415016,45.89520908,"34009","33953","3",Sponde del fiume, , ,"0",,"0",0,"0","0","0",No,Nessuna informazione,0,0,0,"0","0",Nessuna,Nessuna,Non verificato, ,"7010025",Genova,1999/11/09 00:00:00, ,Agg. Prec. 1952,G. Montrone,532.40049139,{5F31E3C1-1E99-4A83-8F71-CB833A9493C5},,530.787225632864,161700.210209683
"12020",Brezzo di Bedero,8.71839172,45.97788916,"34009","33953","3",Sponde del fiume, , ,"0",,"0",0,"0","0","0",No,Nessuna informazione,0,0,0,"0","0",Nessuna,Nessuna,Non verificato, ,"7010025",Genova,1999/11/09 00:00:00, ,Agg. Prec. 1952,G. Montrone,532.40049139,{5F31E3C1-1E99-4A83-8F71-CB833A9493C5},,530.787225632864,170820.051309866
"12021",Brinzio,8.78680655,45.88913557,"34009","33953","3",Sponde del fiume, , ,"0",,"0",0,"0","0","0",No,Nessuna informazione,0,0,0,"0","0",Nessuna,Nessuna,Non verificato, ,"7010025",Genova,1999/11/09 00:00:00, ,Agg. Prec. 1952,G. Montrone,532.40049139,{5F31E3C1-1E99-4A83-8F71-CB833A9493C5},,530.787225632864,160963.890155214
"12022",Brissago-Valtravaglia,8.74641128,45.94962111,"34009","33953","3",Sponde del fiume, , ,"0",,"0",0,"0","0","0",No,Nessuna informazione,0,0,0,"0","0",Nessuna,Nessuna,Non verificato, ,"7010025",Genova,1999/11/09 00:00:00, ,Agg. Prec. 1952,G. Montrone,532.40049139,{5F31E3C1-1E99-4A83-8F71-CB833A9493C5},,530.787225632864,167660.271218066
"12023",Brunello,8.7958022,45.76615745,"34009","33953","3",Sponde del fiume, , ,"0",,"0",0,"0","0","0",No,Nessuna informazione,0,0,0,"0","0",Nessuna,Nessuna,Non verificato, ,"7010025",Genova,1999/11/09 00:00:00, ,Agg. Prec. 1952,G. Montrone,532.40049139,{5F31E3C1-1E99-4A83-8F71-CB833A9493C5},,530.787225632864,147318.02773018
"12024",Brusimpiano,8.88960338,45.94718903,"30261","30193","3",Collegamento sponde del fiume, , ,"0",,"0",0,"0","0","0",No,Nessuna informazione,0,0,0,"0","0",Nessuna,Nessuna,Non verificato, ,"7010025",Genova,1999/11/09 00:00:00, ,Agg. Prec. 1952,G. Montrone,47.17820306,{09799A88-40E5-40BC-AAAB-E64BDFF59D26},,47.0383769914515,167740.021450489
"12025",Buguggiate,8.80675732,45.78525778,"34009","33953","3",Sponde del fiume, , ,"0",,"0",0,"0","0","0",No,Nessuna informazione,0,0,0,"0","0",Nessuna,Nessuna,Non verificato, ,"7010025",Genova,1999/11/09 00:00:00, ,Agg. Prec. 1952,G. Montrone,532.40049139,{5F31E3C1-1E99-4A83-8F71-CB833A9493C5},,530.787225632864,149462.242157591
"12026",Busto Arsizio,8.85494196,45.61508411,"30262","30194","3",Collegamento sponde del fiume, , ,"0",,"0",0,"0","0","0",No,Nessuna informazione,0,0,0,"0","0",Nessuna,Nessuna,Non verificato, ,"7010025",Genova,1999/11/09 00:00:00, ,Agg. Prec. 1952,G. Montrone,29.70953873,{3BD6FEF5-F9E0-494C-8A31-983AE061EFDB},,29.6194297817173,130746.262898056
"12027",Cadegliano-Viconago,8.84466504,45.95877781,"34009","33953","3",Sponde del fiume, , ,"0",,"0",0,"0","0","0",No,Nessuna informazione,0,0,0,"0","0",Nessuna,Nessuna,Non verificato, ,"7010025",Genova,1999/11/09 00:00:00, ,Agg. Prec. 1952,G. Montrone,532.40049139,{5F31E3C1-1E99-4A83-8F71-CB833A9493C5},,530.787225632864,168836.876677089
"12028",Cadrezzate,8.6429034,45.79438636,"34009","33953","3",Sponde del fiume, , ,"0",,"0",0,"0","0","0",No,Nessuna informazione,0,0,0,"0","0",Nessuna,Nessuna,Non verificato, ,"7010025",Genova,1999/11/09 00:00:00, ,Agg. Prec. 1952,G. Montrone,532.40049139,{5F31E3C1-1E99-4A83-8F71-CB833A9493C5},,530.787225632864,150653.437700575
"12029",Cairate,8.87081304,45.69202754,"30262","30194","3",Collegamento sponde del fiume, , ,"0",,"0",0,"0","0","0",No,Nessuna informazione,0,0,0,"0","0",Nessuna,Nessuna,Non verificato, ,"7010025",Genova,1999/11/09 00:00:00, ,Agg. Prec. 1952,G. Montrone,29.70953873,{3BD6FEF5-F9E0-494C-8A31-983AE061EFDB},,29.6194297817173,139357.09467653
"12030",Cantello,8.89696935,45.82105782,"30261","30193","3",Collegamento sponde del fiume, , ,"0",,"0",0,"0","0","0",No,Nessuna informazione,0,0,0,"0","0",Nessuna,Nessuna,Non verificato, ,"7010025",Genova,1999/11/09 00:00:00, ,Agg. Prec. 1952,G. Montrone,47.17820306,{09799A88-40E5-40BC-AAAB-E64BDFF59D26},,47.0383769914515,153755.06081981
"12031",Caravate,8.65547691,45.87950555,"34009","33953","3",Sponde del fiume, , ,"0",,"0",0,"0","0","0",No,Nessuna informazione,0,0,0,"0","0",Nessuna,Nessuna,Non verificato, ,"7010025",Genova,1999/11/09 00:00:00, ,Agg. Prec. 1952,G. Montrone,532.40049139,{5F31E3C1-1E99-4A83-8F71-CB833A9493C5},,530.787225632864,160046.510154428
"12032",Cardano al Campo,8.77457849,45.6466131,"34009","33953","3",Sponde del fiume, , ,"0",,"0",0,"0","0","0",No,Nessuna informazione,0,0,0,"0","0",Nessuna,Nessuna,Non verificato, ,"7010025",Genova,1999/11/09 00:00:00, ,Agg. Prec. 1952,G. Montrone,532.40049139,{5F31E3C1-1E99-4A83-8F71-CB833A9493C5},,530.787225632864,134007.303534889
"12033",Carnago,8.83627171,45.71828365,"34009","33953","3",Sponde del fiume, , ,"0",,"0",0,"0","0","0",No,Nessuna informazione,0,0,0,"0","0",Nessuna,Nessuna,Non verificato, ,"7010025",Genova,1999/11/09 00:00:00, ,Agg. Prec. 1952,G. Montrone,532.40049139,{5F31E3C1-1E99-4A83-8F71-CB833A9493C5},,530.787225632864,142115.212346342
"12034",Caronno Pertusella,9.04786804,45.59681856,"30261","30193","3",Collegamento sponde del fiume, , ,"0",,"0",0,"0","0","0",No,Nessuna informazione,0,0,0,"0","0",Nessuna,Nessuna,Non verificato, ,"7010025",Genova,1999/11/09 00:00:00, ,Agg. Prec. 1952,G. Montrone,47.17820306,{09799A88-40E5-40BC-AAAB-E64BDFF59D26},,47.0383769914515,129950.507654619
"12035",Caronno Varesino,8.83098855,45.73879258,"34009","33953","3",Sponde del fiume, , ,"0",,"0",0,"0","0","0",No,Nessuna informazione,0,0,0,"0","0",Nessuna,Nessuna,Non verificato, ,"7010025",Genova,1999/11/09 00:00:00, ,Agg. Prec. 1952,G. Montrone,532.40049139,{5F31E3C1-1E99-4A83-8F71-CB833A9493C5},,530.787225632864,144372.559199673
"12036",Casale Litta,8.74033681,45.76739057,"34009","33953","3",Sponde del fiume, , ,"0",,"0",0,"0","0","0",No,Nessuna informazione,0,0,0,"0","0",Nessuna,Nessuna,Non verificato, ,"7010025",Genova,1999/11/09 00:00:00, ,Agg. Prec. 1952,G. Montrone,532.40049139,{5F31E3C1-1E99-4A83-8F71-CB833A9493C5},,530.787225632864,147415.665869177
"12037",Casalzuigno,8.70550787,45.90326961,"34009","33953","3",Sponde del fiume, , ,"0",,"0",0,"0","0","0",No,Nessuna informazione,0,0,0,"0","0",Nessuna,Nessuna,Non verificato, ,"7010025",Genova,1999/11/09 00:00:00, ,Agg. Prec. 1952,G. Montrone,532.40049139,{5F31E3C1-1E99-4A83-8F71-CB833A9493C5},,530.787225632864,162549.572212032
"12038",Casciago,8.78437936,45.83477437,"34009","33953","3",Sponde del fiume, , ,"0",,"0",0,"0","0","0",No,Nessuna informazione,0,0,0,"0","0",Nessuna,Nessuna,Non verificato, ,"7010025",Genova,1999/11/09 00:00:00, ,Agg. Prec. 1952,G. Montrone,532.40049139,{5F31E3C1-1E99-4A83-8F71-CB833A9493C5},,530.787225632864,154921.755371541
"12039",Casorate Sempione,8.74031796,45.67171363,"34009","33953","3",Sponde del fiume, , ,"0",,"0",0,"0","0","0",No,Nessuna informazione,0,0,0,"0","0",Nessuna,Nessuna,Non verificato, ,"7010025",Genova,1999/11/09 00:00:00, ,Agg. Prec. 1952,G. Montrone,532.40049139,{5F31E3C1-1E99-4A83-8F71-CB833A9493C5},,530.787225632864,136785.977824072
"12040",Cassano Magnago,8.82082527,45.674381,"34009","33953","3",Sponde del fiume, , ,"0",,"0",0,"0","0","0",No,Nessuna informazione,0,0,0,"0","0",Nessuna,Nessuna,Non verificato, ,"7010025",Genova,1999/11/09 00:00:00, ,Agg. Prec. 1952,G. Montrone,532.40049139,{5F31E3C1-1E99-4A83-8F71-CB833A9493C5},,530.787225632864,137189.318890069
"12041",Cassano Valcuvia,8.76817676,45.932577,"34009","33953","3",Sponde del fiume, , ,"0",,"0",0,"0","0","0",No,Nessuna informazione,0,0,0,"0","0",Nessuna,Nessuna,Non verificato, ,"7010025",Genova,1999/11/09 00:00:00, ,Agg. Prec. 1952,G. Montrone,532.40049139,{5F31E3C1-1E99-4A83-8F71-CB833A9493C5},,530.787225632864,165771.509130513
"12042",Castellanza,8.89758795,45.61147087,"30261","30193","3",Collegamento sponde del fiume, , ,"0",,"0",0,"0","0","0",No,Nessuna informazione,0,0,0,"0","0",Nessuna,Nessuna,Non verificato, ,"7010025",Genova,1999/11/09 00:00:00, ,Agg. Prec. 1952,G. Montrone,47.17820306,{09799A88-40E5-40BC-AAAB-E64BDFF59D26},,47.0383769914515,130492.351711161
"12043",Castello Cabiaglio,8.75481888,45.89254824,"34009","33953","3",Sponde del fiume, , ,"0",,"0",0,"0","0","0",No,Nessuna informazione,0,0,0,"0","0",Nessuna,Nessuna,Non verificato, ,"7010025",Genova,1999/11/09 00:00:00, ,Agg. Prec. 1952,G. Montrone,532.40049139,{5F31E3C1-1E99-4A83-8F71-CB833A9493C5},,530.787225632864,161318.972585485
"12044",Castelseprio,8.86127391,45.71695339,"30262","30194","3",Collegamento sponde del fiume, , ,"0",,"0",0,"0","0","0",No,Nessuna informazione,0,0,0,"0","0",Nessuna,Nessuna,Non verificato, ,"7010025",Genova,1999/11/09 00:00:00, ,Agg. Prec. 1952,G. Montrone,29.70953873,{3BD6FEF5-F9E0-494C-8A31-983AE061EFDB},,29.6194297817173,142072.846646294
"12045",Castelveccana,8.66483192,45.94653339,"34009","33953","3",Sponde del fiume, , ,"0",,"0",0,"0","0","0",No,Nessuna informazione,0,0,0,"0","0",Nessuna,Nessuna,Non verificato, ,"7010025",Genova,1999/11/09 00:00:00, ,Agg. Prec. 1952,G. Montrone,532.40049139,{5F31E3C1-1E99-4A83-8F71-CB833A9493C5},,530.787225632864,167454.264776206
"12046",Castiglione Olona,8.86808089,45.75638484,"30262","30194","3",Collegamento sponde del fiume, , ,"0",,"0",0,"0","0","0",No,Nessuna informazione,0,0,0,"0","0",Nessuna,Nessuna,Non verificato, ,"7010025",Genova,1999/11/09 00:00:00, ,Agg. Prec. 1952,G. Montrone,29.70953873,{3BD6FEF5-F9E0-494C-8A31-983AE061EFDB},,29.6194297817173,146478.160348791
"12047",Castronno,8.81288955,45.74696138,"34009","33953","3",Sponde del fiume, , ,"0",,"0",0,"0","0","0",No,Nessuna informazione,0,0,0,"0","0",Nessuna,Nessuna,Non verificato, ,"7010025",Genova,1999/11/09 00:00:00, ,Agg. Prec. 1952,G. Montrone,532.40049139,{5F31E3C1-1E99-4A83-8F71-CB833A9493C5},,530.787225632864,145224.664645118
"12048",Cavaria con Premezzo,8.79768031,45.69454899,"34009","33953","3",Sponde del fiume, , ,"0",,"0",0,"0","0","0",No,Nessuna informazione,0,0,0,"0","0",Nessuna,Nessuna,Non verificato, ,"7010025",Genova,1999/11/09 00:00:00, ,Agg. Prec. 1952,G. Montrone,532.40049139,{5F31E3C1-1E99-4A83-8F71-CB833A9493C5},,530.787225632864,139368.439749303
"12049",Cazzago Brabbia,8.73527589,45.79535134,"34009","33953","3",Sponde del fiume, , ,"0",,"0",0,"0","0","0",No,Nessuna informazione,0,0,0,"0","0",Nessuna,Nessuna,Non verificato, ,"7010025",Genova,1999/11/09 00:00:00, ,Agg. Prec. 1952,G. Montrone,532.40049139,{5F31E3C1-1E99-4A83-8F71-CB833A9493C5},,530.787225632864,150524.925618337
"12050",Cislago,8.97062131,45.66174873,"30261","30193","3",Collegamento sponde del fiume, , ,"0",,"0",0,"0","0","0",No,Nessuna informazione,0,0,0,"0","0",Nessuna,Nessuna,Non verificato, ,"7010025",Genova,1999/11/09 00:00:00, ,Agg. Prec. 1952,G. Montrone,47.17820306,{09799A88-40E5-40BC-AAAB-E64BDFF59D26},,47.0383769914515,136444.064050782
"12051",Cittiglio,8.66871307,45.8946628,"34009","33953","3",Sponde del fiume, , ,"0",,"0",0,"0","0","0",No,Nessuna informazione,0,0,0,"0","0",Nessuna,Nessuna,Non verificato, ,"7010025",Genova,1999/11/09 00:00:00, ,Agg. Prec. 1952,G. Montrone,532.40049139,{5F31E3C1-1E99-4A83-8F71-CB833A9493C5},,530.787225632864,161683.636967007
"12052",Clivio,8.93358998,45.86445858,"30261","30193","3",Collegamento sponde del fiume, , ,"0",,"0",0,"0","0","0",No,Nessuna informazione,0,0,0,"0","0",Nessuna,Nessuna,Non verificato, ,"7010025",Genova,1999/11/09 00:00:00, ,Agg. Prec. 1952,G. Montrone,47.17820306,{09799A88-40E5-40BC-AAAB-E64BDFF59D26},,47.0383769914515,158706.121334584
"12053",Cocquio-Trevisago,8.6965465,45.85787962,"34009","33953","3",Sponde del fiume, , ,"0",,"0",0,"0","0","0",No,Nessuna informazione,0,0,0,"0","0",Nessuna,Nessuna,Non verificato, ,"7010025",Genova,1999/11/09 00:00:00, ,Agg. Prec. 1952,G. Montrone,532.40049139,{5F31E3C1-1E99-4A83-8F71-CB833A9493C5},,530.787225632864,157525.44487206
"12054",Comabbio,8.67466593,45.77263671,"34009","33953","3",Sponde del fiume, , ,"0",,"0",0,"0","0","0",No,Nessuna informazione,0,0,0,"0","0",Nessuna,Nessuna,Non verificato, ,"7010025",Genova,1999/11/09 00:00:00, ,Agg. Prec. 1952,G. Montrone,532.40049139,{5F31E3C1-1E99-4A83-8F71-CB833A9493C5},,530.787225632864,148118.420946462
"12055",Comerio,8.74709374,45.8426223,"34009","33953","3",Sponde del fiume, , ,"0",,"0",0,"0","0","0",No,Nessuna informazione,0,0,0,"0","0",Nessuna,Nessuna,Non verificato, ,"7010025",Genova,1999/11/09 00:00:00, ,Agg. Prec. 1952,G. Montrone,532.40049139,{5F31E3C1-1E99-4A83-8F71-CB833A9493C5},,530.787225632864,155772.042975384
"12056",Cremenaga,8.80659213,45.98924397,"34009","33953","3",Sponde del fiume, , ,"0",,"0",0,"0","0","0",No,Nessuna informazione,0,0,0,"0","0",Nessuna,Nessuna,Non verificato, ,"7010025",Genova,1999/11/09 00:00:00, ,Agg. Prec. 1952,G. Montrone,532.40049139,{5F31E3C1-1E99-4A83-8F71-CB833A9493C5},,530.787225632864,172117.172260722
"12057",Crosio della Valle,8.76756905,45.76163488,"34009","33953","3",Sponde del fiume, , ,"0",,"0",0,"0","0","0",No,Nessuna informazione,0,0,0,"0","0",Nessuna,Nessuna,Non verificato, ,"7010025",Genova,1999/11/09 00:00:00, ,Agg. Prec. 1952,G. Montrone,532.40049139,{5F31E3C1-1E99-4A83-8F71-CB833A9493C5},,530.787225632864,146779.387949735
"12058",Cuasso al Monte,8.8798154,45.91440418,"30262","30194","3",Collegamento sponde del fiume, , ,"0",,"0",0,"0","0","0",No,Nessuna informazione,0,0,0,"0","0",Nessuna,Nessuna,Non verificato, ,"7010025",Genova,1999/11/09 00:00:00, ,Agg. Prec. 1952,G. Montrone,29.70953873,{3BD6FEF5-F9E0-494C-8A31-983AE061EFDB},,29.6194297817173,164057.361307175
"12059",Cugliate-Fabiasco,8.82065422,45.94703032,"34009","33953","3",Sponde del fiume, , ,"0",,"0",0,"0","0","0",No,Nessuna informazione,0,0,0,"0","0",Nessuna,Nessuna,Non verificato, ,"7010025",Genova,1999/11/09 00:00:00, ,Agg. Prec. 1952,G. Montrone,532.40049139,{5F31E3C1-1E99-4A83-8F71-CB833A9493C5},,530.787225632864,167460.887348597
"12060",Cunardo,8.80225408,45.93781498,"34009","33953","3",Sponde del fiume, , ,"0",,"0",0,"0","0","0",No,Nessuna informazione,0,0,0,"0","0",Nessuna,Nessuna,Non verificato, ,"7010025",Genova,1999/11/09 00:00:00, ,Agg. Prec. 1952,G. Montrone,532.40049139,{5F31E3C1-1E99-4A83-8F71-CB833A9493C5},,530.787225632864,166396.45690182
"12061",Curiglia con Monteviasco,8.8048167,46.06064966,"34009","33953","3",Sponde del fiume, , ,"0",,"0",0,"0","0","0",No,Nessuna informazione,0,0,0,"0","0",Nessuna,Nessuna,Non verificato, ,"7010025",Genova,1999/11/09 00:00:00, ,Agg. Prec. 1952,G. Montrone,532.40049139,{5F31E3C1-1E99-4A83-8F71-CB833A9493C5},,530.787225632864,180045.09319642
"12062",Cuveglio,8.73583523,45.90596577,"34009","33953","3",Sponde del fiume, , ,"0",,"0",0,"0","0","0",No,Nessuna informazione,0,0,0,"0","0",Nessuna,Nessuna,Non verificato, ,"7010025",Genova,1999/11/09 00:00:00, ,Agg. Prec. 1952,G. Montrone,532.40049139,{5F31E3C1-1E99-4A83-8F71-CB833A9493C5},,530.787225632864,162813.954542323
"12063",Cuvio,8.73138709,45.89803114,"34009","33953","3",Sponde del fiume, , ,"0",,"0",0,"0","0","0",No,Nessuna informazione,0,0,0,"0","0",Nessuna,Nessuna,Non verificato, ,"7010025",Genova,1999/11/09 00:00:00, ,Agg. Prec. 1952,G. Montrone,532.40049139,{5F31E3C1-1E99-4A83-8F71-CB833A9493C5},,530.787225632864,161935.380925735
"12064",Daverio,8.77150586,45.77710951,"34009","33953","3",Sponde del fiume, , ,"0",,"0",0,"0","0","0",No,Nessuna informazione,0,0,0,"0","0",Nessuna,Nessuna,Non verificato, ,"7010025",Genova,1999/11/09 00:00:00, ,Agg. Prec. 1952,G. Montrone,532.40049139,{5F31E3C1-1E99-4A83-8F71-CB833A9493C5},,530.787225632864,148501.606944032
"12065",Dumenza,8.78485575,46.02277146,"34009","33953","3",Sponde del fiume, , ,"0",,"0",0,"0","0","0",No,Nessuna informazione,0,0,0,"0","0",Nessuna,Nessuna,Non verificato, ,"7010025",Genova,1999/11/09 00:00:00, ,Agg. Prec. 1952,G. Montrone,532.40049139,{5F31E3C1-1E99-4A83-8F71-CB833A9493C5},,530.787225632864,175807.213793177
"12066",Duno,8.73854155,45.91405764,"34009","33953","3",Sponde del fiume, , ,"0",,"0",0,"0","0","0",No,Nessuna informazione,0,0,0,"0","0",Nessuna,Nessuna,Non verificato, ,"7010025",Genova,1999/11/09 00:00:00, ,Agg. Prec. 1952,G. Montrone,532.40049139,{5F31E3C1-1E99-4A83-8F71-CB833A9493C5},,530.787225632864,163711.552472166
"12067",Fagnano Olona,8.87410817,45.66960007,"30261","30193","3",Collegamento sponde del fiume, , ,"0",,"0",0,"0","0","0",No,Nessuna informazione,0,0,0,"0","0",Nessuna,Nessuna,Non verificato, ,"7010025",Genova,1999/11/09 00:00:00, ,Agg. Prec. 1952,G. Montrone,47.17820306,{09799A88-40E5-40BC-AAAB-E64BDFF59D26},,47.0383769914515,136876.477616937
"12068",Ferno,8.75884994,45.61026875,"34009","33953","3",Sponde del fiume, , ,"0",,"0",0,"0","0","0",No,Nessuna informazione,0,0,0,"0","0",Nessuna,Nessuna,Non verificato, ,"7010025",Genova,1999/11/09 00:00:00, ,Agg. Prec. 1952,G. Montrone,532.40049139,{5F31E3C1-1E99-4A83-8F71-CB833A9493C5},,530.787225632864,129958.169611401
"12069",Ferrera di Varese,8.78818329,45.93232904,"34009","33953","3",Sponde del fiume, , ,"0",,"0",0,"0","0","0",No,Nessuna informazione,0,0,0,"0","0",Nessuna,Nessuna,Non verificato, ,"7010025",Genova,1999/11/09 00:00:00, ,Agg. Prec. 1952,G. Montrone,532.40049139,{5F31E3C1-1E99-4A83-8F71-CB833A9493C5},,530.787225632864,165764.059480288
"12070",Gallarate,8.79329925,45.66018302,"34009","33953","3",Sponde del fiume, , ,"0",,"0",0,"0","0","0",No,Nessuna informazione,0,0,0,"0","0",Nessuna,Nessuna,Non verificato, ,"7010025",Genova,1999/11/09 00:00:00, ,Agg. Prec. 1952,G. Montrone,532.40049139,{5F31E3C1-1E99-4A83-8F71-CB833A9493C5},,530.787225632864,135542.852157918
"12071",Galliate Lombardo,8.76853346,45.78629177,"34009","33953","3",Sponde del fiume, , ,"0",,"0",0,"0","0","0",No,Nessuna informazione,0,0,0,"0","0",Nessuna,Nessuna,Non verificato, ,"7010025",Genova,1999/11/09 00:00:00, ,Agg. Prec. 1952,G. Montrone,532.40049139,{5F31E3C1-1E99-4A83-8F71-CB833A9493C5},,530.787225632864,149519.406686676
"12072",Gavirate,8.72477105,45.84113211,"34009","33953","3",Sponde del fiume, , ,"0",,"0",0,"0","0","0",No,Nessuna informazione,0,0,0,"0","0",Nessuna,Nessuna,Non verificato, ,"7010025",Genova,1999/11/09 00:00:00, ,Agg. Prec. 1952,G. Montrone,532.40049139,{5F31E3C1-1E99-4A83-8F71-CB833A9493C5},,530.787225632864,155620.0044948
"12073",Gazzada Schianno,8.82558358,45.78025066,"34009","33953","3",Sponde del fiume, , ,"0",,"0",0,"0","0","0",No,Nessuna informazione,0,0,0,"0","0",Nessuna,Nessuna,Non verificato, ,"7010025",Genova,1999/11/09 00:00:00, ,Agg. Prec. 1952,G. Montrone,532.40049139,{5F31E3C1-1E99-4A83-8F71-CB833A9493C5},,530.787225632864,148957.016299023
"12074",Gemonio,8.67884895,45.87741982,"34009","33953","3",Sponde del fiume, , ,"0",,"0",0,"0","0","0",No,Nessuna informazione,0,0,0,"0","0",Nessuna,Nessuna,Non verificato, ,"7010025",Genova,1999/11/09 00:00:00, ,Agg. Prec. 1952,G. Montrone,532.40049139,{5F31E3C1-1E99-4A83-8F71-CB833A9493C5},,530.787225632864,159739.104851186
"12075",Gerenzano,8.99858062,45.63843744,"30261","30193","3",Collegamento sponde del fiume, , ,"0",,"0",0,"0","0","0",No,Nessuna informazione,0,0,0,"0","0",Nessuna,Nessuna,Non verificato, ,"7010025",Genova,1999/11/09 00:00:00, ,Agg. Prec. 1952,G. Montrone,47.17820306,{09799A88-40E5-40BC-AAAB-E64BDFF59D26},,47.0383769914515,134074.163349807
"12076",Germignaga,8.72680431,45.99340192,"34009","33953","3",Sponde del fiume, , ,"0",,"0",0,"0","0","0",No,Nessuna informazione,0,0,0,"0","0",Nessuna,Nessuna,Non verificato, ,"7010025",Genova,1999/11/09 00:00:00, ,Agg. Prec. 1952,G. Montrone,532.40049139,{5F31E3C1-1E99-4A83-8F71-CB833A9493C5},,530.787225632864,172534.832704078
"12077",Golasecca,8.65509793,45.696857,"34009","33953","3",Sponde del fiume, , ,"0",,"0",0,"0","0","0",No,Nessuna informazione,0,0,0,"0","0",Nessuna,Nessuna,Non verificato, ,"7010025",Genova,1999/11/09 00:00:00, ,Agg. Prec. 1952,G. Montrone,532.40049139,{5F31E3C1-1E99-4A83-8F71-CB833A9493C5},,530.787225632864,139781.531515627
"12078",Gorla Maggiore,8.89352477,45.66609126,"30261","30193","3",Collegamento sponde del fiume, , ,"0",,"0",0,"0","0","0",No,Nessuna informazione,0,0,0,"0","0",Nessuna,Nessuna,Non verificato, ,"7010025",Genova,1999/11/09 00:00:00, ,Agg. Prec. 1952,G. Montrone,47.17820306,{09799A88-40E5-40BC-AAAB-E64BDFF59D26},,47.0383769914515,136541.047580835
"12079",Gorla Minore,8.89650863,45.64326093,"30261","30193","3",Collegamento sponde del fiume, , ,"0",,"0",0,"0","0","0",No,Nessuna informazione,0,0,0,"0","0",Nessuna,Nessuna,Non verificato, ,"7010025",Genova,1999/11/09 00:00:00, ,Agg. Prec. 1952,G. Montrone,47.17820306,{09799A88-40E5-40BC-AAAB-E64BDFF59D26},,47.0383769914515,134016.858881018
"12080",Gornate Olona,8.85910112,45.73774934,"30262","30194","3",Collegamento sponde del fiume, , ,"0",,"0",0,"0","0","0",No,Nessuna informazione,0,0,0,"0","0",Nessuna,Nessuna,Non verificato, ,"7010025",Genova,1999/11/09 00:00:00, ,Agg. Prec. 1952,G. Montrone,29.70953873,{3BD6FEF5-F9E0-494C-8A31-983AE061EFDB},,29.6194297817173,144369.012794679
"12081",Grantola,8.7707667,45.94960692,"34009","33953","3",Sponde del fiume, , ,"0",,"0",0,"0","0","0",No,Nessuna informazione,0,0,0,"0","0",Nessuna,Nessuna,Non verificato, ,"7010025",Genova,1999/11/09 00:00:00, ,Agg. Prec. 1952,G. Montrone,532.40049139,{5F31E3C1-1E99-4A83-8F71-CB833A9493C5},,530.787225632864,167665.317178025
"12082",Inarzo,8.7364261,45.78677616,"34009","33953","3",Sponde del fiume, , ,"0",,"0",0,"0","0","0",No,Nessuna informazione,0,0,0,"0","0",Nessuna,Nessuna,Non verificato, ,"7010025",Genova,1999/11/09 00:00:00, ,Agg. Prec. 1952,G. Montrone,532.40049139,{5F31E3C1-1E99-4A83-8F71-CB833A9493C5},,530.787225632864,149571.498778594
"12083",Induno Olona,8.83856569,45.85196664,"34009","33953","3",Sponde del fiume, , ,"0",,"0",0,"0","0","0",No,Nessuna informazione,0,0,0,"0","0",Nessuna,Nessuna,Non verificato, ,"7010025",Genova,1999/11/09 00:00:00, ,Agg. Prec. 1952,G. Montrone,532.40049139,{5F31E3C1-1E99-4A83-8F71-CB833A9493C5},,530.787225632864,156960.28510367
"12084",Ispra,8.61026566,45.81617289,"34009","33953","3",Sponde del fiume, , ,"0",,"0",0,"0","0","0",No,Nessuna informazione,0,0,0,"0","0",Nessuna,Nessuna,Non verificato, ,"7010025",Genova,1999/11/09 00:00:00, ,Agg. Prec. 1952,G. Montrone,532.40049139,{5F31E3C1-1E99-4A83-8F71-CB833A9493C5},,530.787225632864,153234.319080936
"12085",Jerago con Orago,8.79253825,45.70524944,"34009","33953","3",Sponde del fiume, , ,"0",,"0",0,"0","0","0",No,Nessuna informazione,0,0,0,"0","0",Nessuna,Nessuna,Non verificato, ,"7010025",Genova,1999/11/09 00:00:00, ,Agg. Prec. 1952,G. Montrone,532.40049139,{5F31E3C1-1E99-4A83-8F71-CB833A9493C5},,530.787225632864,140546.898906969
"12086",Lavena Ponte Tresa,8.86107511,45.96092516,"30262","30194","3",Collegamento sponde del fiume, , ,"0",,"0",0,"0","0","0",No,Nessuna informazione,0,0,0,"0","0",Nessuna,Nessuna,Non verificato, ,"7010025",Genova,1999/11/09 00:00:00, ,Agg. Prec. 1952,G. Montrone,29.70953873,{3BD6FEF5-F9E0-494C-8A31-983AE061EFDB},,29.6194297817173,169135.784814352
"12087",Laveno-Mombello,8.61535619,45.91578637,"34009","33953","3",Sponde del fiume, , ,"0",,"0",0,"0","0","0",No,Nessuna informazione,0,0,0,"0","0",Nessuna,Nessuna,Non verificato, ,"7010025",Genova,1999/11/09 00:00:00, ,Agg. Prec. 1952,G. Montrone,532.40049139,{5F31E3C1-1E99-4A83-8F71-CB833A9493C5},,530.787225632864,164247.747980567
"12088",Leggiuno,8.6193312,45.87562703,"34009","33953","3",Sponde del fiume, , ,"0",,"0",0,"0","0","0",No,Nessuna informazione,0,0,0,"0","0",Nessuna,Nessuna,Non verificato, ,"7010025",Genova,1999/11/09 00:00:00, ,Agg. Prec. 1952,G. Montrone,532.40049139,{5F31E3C1-1E99-4A83-8F71-CB833A9493C5},,530.787225632864,159775.182495871
"12089",Lonate Ceppino,8.87627239,45.70528783,"30261","30193","3",Collegamento sponde del fiume, , ,"0",,"0",0,"0","0","0",No,Nessuna informazione,0,0,0,"0","0",Nessuna,Nessuna,Non verificato, ,"7010025",Genova,1999/11/09 00:00:00, ,Agg. Prec. 1952,G. Montrone,47.17820306,{09799A88-40E5-40BC-AAAB-E64BDFF59D26},,47.0383769914515,140844.704841972
"12090",Lonate Pozzolo,8.75237386,45.60005908,"34009","33953","3",Sponde del fiume, , ,"0",,"0",0,"0","0","0",No,Nessuna informazione,0,0,0,"0","0",Nessuna,Nessuna,Non verificato, ,"7010025",Genova,1999/11/09 00:00:00, ,Agg. Prec. 1952,G. Montrone,532.40049139,{5F31E3C1-1E99-4A83-8F71-CB833A9493C5},,530.787225632864,128822.504139314
"12091",Lozza,8.85705579,45.77548006,"30262","30194","3",Collegamento sponde del fiume, , ,"0",,"0",0,"0","0","0",No,Nessuna informazione,0,0,0,"0","0",Nessuna,Nessuna,Non verificato, ,"7010025",Genova,1999/11/09 00:00:00, ,Agg. Prec. 1952,G. Montrone,29.70953873,{3BD6FEF5-F9E0-494C-8A31-983AE061EFDB},,29.6194297817173,148544.896007997
"12092",Luino,8.74242933,46.00249108,"34009","33953","3",Sponde del fiume, , ,"0",,"0",0,"0","0","0",No,Nessuna informazione,0,0,0,"0","0",Nessuna,Nessuna,Non verificato, ,"7010025",Genova,1999/11/09 00:00:00, ,Agg. Prec. 1952,G. Montrone,532.40049139,{5F31E3C1-1E99-4A83-8F71-CB833A9493C5},,530.787225632864,173535.435658802
"12093",Luvinate,8.77246432,45.83955502,"34009","33953","3",Sponde del fiume, , ,"0",,"0",0,"0","0","0",No,Nessuna informazione,0,0,0,"0","0",Nessuna,Nessuna,Non verificato, ,"7010025",Genova,1999/11/09 00:00:00, ,Agg. Prec. 1952,G. Montrone,532.40049139,{5F31E3C1-1E99-4A83-8F71-CB833A9493C5},,530.787225632864,155439.923978752
"12095",Malgesso,8.6761411,45.82769458,"34009","33953","3",Sponde del fiume, , ,"0",,"0",0,"0","0","0",No,Nessuna informazione,0,0,0,"0","0",Nessuna,Nessuna,Non verificato, ,"7010025",Genova,1999/11/09 00:00:00, ,Agg. Prec. 1952,G. Montrone,532.40049139,{5F31E3C1-1E99-4A83-8F71-CB833A9493C5},,530.787225632864,154226.110237162
"12096",Malnate,8.88111094,45.79952624,"30261","30193","3",Collegamento sponde del fiume, , ,"0",,"0",0,"0","0","0",No,Nessuna informazione,0,0,0,"0","0",Nessuna,Nessuna,Non verificato, ,"7010025",Genova,1999/11/09 00:00:00, ,Agg. Prec. 1952,G. Montrone,47.17820306,{09799A88-40E5-40BC-AAAB-E64BDFF59D26},,47.0383769914515,151321.41253303
"12097",Marchirolo,8.8357696,45.95158873,"34009","33953","3",Sponde del fiume, , ,"0",,"0",0,"0","0","0",No,Nessuna informazione,0,0,0,"0","0",Nessuna,Nessuna,Non verificato, ,"7010025",Genova,1999/11/09 00:00:00, ,Agg. Prec. 1952,G. Montrone,532.40049139,{5F31E3C1-1E99-4A83-8F71-CB833A9493C5},,530.787225632864,168009.830275268
"12098",Marnate,8.90387061,45.62847701,"30261","30193","3",Collegamento sponde del fiume, , ,"0",,"0",0,"0","0","0",No,Nessuna informazione,0,0,0,"0","0",Nessuna,Nessuna,Non verificato, ,"7010025",Genova,1999/11/09 00:00:00, ,Agg. Prec. 1952,G. Montrone,47.17820306,{09799A88-40E5-40BC-AAAB-E64BDFF59D26},,47.0383769914515,132402.846188475
"12099",Marzio,8.85776946,45.93784232,"30262","30194","3",Collegamento sponde del fiume, , ,"0",,"0",0,"0","0","0",No,Nessuna informazione,0,0,0,"0","0",Nessuna,Nessuna,Non verificato, ,"7010025",Genova,1999/11/09 00:00:00, ,Agg. Prec. 1952,G. Montrone,29.70953873,{3BD6FEF5-F9E0-494C-8A31-983AE061EFDB},,29.6194297817173,166561.438425917
"12100",Masciago Primo,8.78080342,45.91642152,"34009","33953","3",Sponde del fiume, , ,"0",,"0",0,"0","0","0",No,Nessuna informazione,0,0,0,"0","0",Nessuna,Nessuna,Non verificato, ,"7010025",Genova,1999/11/09 00:00:00, ,Agg. Prec. 1952,G. Montrone,532.40049139,{5F31E3C1-1E99-4A83-8F71-CB833A9493C5},,530.787225632864,163987.674193839
"12101",Mercallo,8.67210331,45.74672525,"34009","33953","3",Sponde del fiume, , ,"0",,"0",0,"0","0","0",No,Nessuna informazione,0,0,0,"0","0",Nessuna,Nessuna,Non verificato, ,"7010025",Genova,1999/11/09 00:00:00, ,Agg. Prec. 1952,G. Montrone,532.40049139,{5F31E3C1-1E99-4A83-8F71-CB833A9493C5},,530.787225632864,145250.560356526
"12102",Mesenzana,8.75881336,45.94701873,"34009","33953","3",Sponde del fiume, , ,"0",,"0",0,"0","0","0",No,Nessuna informazione,0,0,0,"0","0",Nessuna,Nessuna,Non verificato, ,"7010025",Genova,1999/11/09 00:00:00, ,Agg. Prec. 1952,G. Montrone,532.40049139,{5F31E3C1-1E99-4A83-8F71-CB833A9493C5},,530.787225632864,167371.776905154
"12103",Montegrino Valtravaglia,8.76812149,45.97345415,"34009","33953","3",Sponde del fiume, , ,"0",,"0",0,"0","0","0",No,Nessuna informazione,0,0,0,"0","0",Nessuna,Nessuna,Non verificato, ,"7010025",Genova,1999/11/09 00:00:00, ,Agg. Prec. 1952,G. Montrone,532.40049139,{5F31E3C1-1E99-4A83-8F71-CB833A9493C5},,530.787225632864,170313.040530096
"12104",Monvalle,8.63204654,45.85759299,"34009","33953","3",Sponde del fiume, , ,"0",,"0",0,"0","0","0",No,Nessuna informazione,0,0,0,"0","0",Nessuna,Nessuna,Non verificato, ,"7010025",Genova,1999/11/09 00:00:00, ,Agg. Prec. 1952,G. Montrone,532.40049139,{5F31E3C1-1E99-4A83-8F71-CB833A9493C5},,530.787225632864,157713.370210372
"12105",Morazzone,8.82937436,45.76916148,"34009","33953","3",Sponde del fiume, , ,"0",,"0",0,"0","0","0",No,Nessuna informazione,0,0,0,"0","0",Nessuna,Nessuna,Non verificato, ,"7010025",Genova,1999/11/09 00:00:00, ,Agg. Prec. 1952,G. Montrone,532.40049139,{5F31E3C1-1E99-4A83-8F71-CB833A9493C5},,530.787225632864,147738.077867154
"12106",Mornago,8.75239721,45.74759383,"34009","33953","3",Sponde del fiume, , ,"0",,"0",0,"0","0","0",No,Nessuna informazione,0,0,0,"0","0",Nessuna,Nessuna,Non verificato, ,"7010025",Genova,1999/11/09 00:00:00, ,Agg. Prec. 1952,G. Montrone,532.40049139,{5F31E3C1-1E99-4A83-8F71-CB833A9493C5},,530.787225632864,145213.758973479
"12107",Oggiona con Santo Stefano,8.81846582,45.69730244,"34009","33953","3",Sponde del fiume, , ,"0",,"0",0,"0","0","0",No,Nessuna informazione,0,0,0,"0","0",Nessuna,Nessuna,Non verificato, ,"7010025",Genova,1999/11/09 00:00:00, ,Agg. Prec. 1952,G. Montrone,532.40049139,{5F31E3C1-1E99-4A83-8F71-CB833A9493C5},,530.787225632864,139726.706178718
"12108",Olgiate Olona,8.89079261,45.62776512,"30261","30193","3",Collegamento sponde del fiume, , ,"0",,"0",0,"0","0","0",No,Nessuna informazione,0,0,0,"0","0",Nessuna,Nessuna,Non verificato, ,"7010025",Genova,1999/11/09 00:00:00, ,Agg. Prec. 1952,G. Montrone,47.17820306,{09799A88-40E5-40BC-AAAB-E64BDFF59D26},,47.0383769914515,132277.849555663
"12109",Origgio,9.01782113,45.59963152,"30261","30193","3",Collegamento sponde del fiume, , ,"0",,"0",0,"0","0","0",No,Nessuna informazione,0,0,0,"0","0",Nessuna,Nessuna,Non verificato, ,"7010025",Genova,1999/11/09 00:00:00, ,Agg. Prec. 1952,G. Montrone,47.17820306,{09799A88-40E5-40BC-AAAB-E64BDFF59D26},,47.0383769914515,129958.241132128
"12110",Orino,8.7129267,45.88178979,"34009","33953","3",Sponde del fiume, , ,"0",,"0",0,"0","0","0",No,Nessuna informazione,0,0,0,"0","0",Nessuna,Nessuna,Non verificato, ,"7010025",Genova,1999/11/09 00:00:00, ,Agg. Prec. 1952,G. Montrone,532.40049139,{5F31E3C1-1E99-4A83-8F71-CB833A9493C5},,530.787225632864,160151.642443686
"12111",Osmate,8.65520119,45.78866971,"34009","33953","3",Sponde del fiume, , ,"0",,"0",0,"0","0","0",No,Nessuna informazione,0,0,0,"0","0",Nessuna,Nessuna,Non verificato, ,"7010025",Genova,1999/11/09 00:00:00, ,Agg. Prec. 1952,G. Montrone,532.40049139,{5F31E3C1-1E99-4A83-8F71-CB833A9493C5},,530.787225632864,149967.532121781
"12113",Porto Ceresio,8.90627938,45.90401736,"30261","30193","3",Collegamento sponde del fiume, , ,"0",,"0",0,"0","0","0",No,Nessuna informazione,0,0,0,"0","0",Nessuna,Nessuna,Non verificato, ,"7010025",Genova,1999/11/09 00:00:00, ,Agg. Prec. 1952,G. Montrone,47.17820306,{09799A88-40E5-40BC-AAAB-E64BDFF59D26},,47.0383769914515,162993.688978047
"12114",Porto Valtravaglia,8.68034374,45.96082147,"34009","33953","3",Sponde del fiume, , ,"0",,"0",0,"0","0","0",No,Nessuna informazione,0,0,0,"0","0",Nessuna,Nessuna,Non verificato, ,"7010025",Genova,1999/11/09 00:00:00, ,Agg. Prec. 1952,G. Montrone,532.40049139,{5F31E3C1-1E99-4A83-8F71-CB833A9493C5},,530.787225632864,168995.937901178
"12115",Rancio Valcuvia,8.77019605,45.91632586,"34009","33953","3",Sponde del fiume, , ,"0",,"0",0,"0","0","0",No,Nessuna informazione,0,0,0,"0","0",Nessuna,Nessuna,Non verificato, ,"7010025",Genova,1999/11/09 00:00:00, ,Agg. Prec. 1952,G. Montrone,532.40049139,{5F31E3C1-1E99-4A83-8F71-CB833A9493C5},,530.787225632864,163967.341240824
"12116",Ranco,8.57472943,45.79845478,"30264","30196","3",Collegamento sponde del fiume, , ,"0",,"0",0,"0","0","0",No,Nessuna informazione,0,0,0,"0","0",Nessuna,Nessuna,Non verificato, ,"7010025",Varazze,1999/11/09 00:00:00, ,Agg. Prec. 1952,G. Montrone,25.28200524,{97113167-9924-4762-ABF5-DC2672A6D252},,25.2051509620287,151499.62573623
"12117",Saltrio,8.92438188,45.87355994,"30261","30193","3",Collegamento sponde del fiume, , ,"0",,"0",0,"0","0","0",No,Nessuna informazione,0,0,0,"0","0",Nessuna,Nessuna,Non verificato, ,"7010025",Genova,1999/11/09 00:00:00, ,Agg. Prec. 1952,G. Montrone,47.17820306,{09799A88-40E5-40BC-AAAB-E64BDFF59D26},,47.0383769914515,159677.768634587
"12118",Samarate,8.78259875,45.63092833,"34009","33953","3",Sponde del fiume, , ,"0",,"0",0,"0","0","0",No,Nessuna informazione,0,0,0,"0","0",Nessuna,Nessuna,Non verificato, ,"7010025",Genova,1999/11/09 00:00:00, ,Agg. Prec. 1952,G. Montrone,532.40049139,{5F31E3C1-1E99-4A83-8F71-CB833A9493C5},,530.787225632864,132275.208181153
"12119",Saronno,9.03640459,45.62373958,"30261","30193","3",Collegamento sponde del fiume, , ,"0",,"0",0,"0","0","0",No,Nessuna informazione,0,0,0,"0","0",Nessuna,Nessuna,Non verificato, ,"7010025",Genova,1999/11/09 00:00:00, ,Agg. Prec. 1952,G. Montrone,47.17820306,{09799A88-40E5-40BC-AAAB-E64BDFF59D26},,47.0383769914515,132795.689738915
"12120",Sesto Calende,8.63164235,45.72379362,"34009","33953","3",Sponde del fiume, , ,"0",,"0",0,"0","0","0",No,Nessuna informazione,0,0,0,"0","0",Nessuna,Nessuna,Non verificato, ,"7010025",Genova,1999/11/09 00:00:00, ,Agg. Prec. 1952,G. Montrone,532.40049139,{5F31E3C1-1E99-4A83-8F71-CB833A9493C5},,530.787225632864,142879.526032875
"12121",Solbiate Arno,8.813467,45.72056917,"34009","33953","3",Sponde del fiume, , ,"0",,"0",0,"0","0","0",No,Nessuna informazione,0,0,0,"0","0",Nessuna,Nessuna,Non verificato, ,"7010025",Genova,1999/11/09 00:00:00, ,Agg. Prec. 1952,G. Montrone,532.40049139,{5F31E3C1-1E99-4A83-8F71-CB833A9493C5},,530.787225632864,142295.709768583
"12122",Solbiate Olona,8.88734116,45.65359629,"30261","30193","3",Collegamento sponde del fiume, , ,"0",,"0",0,"0","0","0",No,Nessuna informazione,0,0,0,"0","0",Nessuna,Nessuna,Non verificato, ,"7010025",Genova,1999/11/09 00:00:00, ,Agg. Prec. 1952,G. Montrone,47.17820306,{09799A88-40E5-40BC-AAAB-E64BDFF59D26},,47.0383769914515,135134.735829892
"12123",Somma Lombardo,8.70435241,45.68377665,"34009","33953","3",Sponde del fiume, , ,"0",,"0",0,"0","0","0",No,Nessuna informazione,0,0,0,"0","0",Nessuna,Nessuna,Non verificato, ,"7010025",Genova,1999/11/09 00:00:00, ,Agg. Prec. 1952,G. Montrone,532.40049139,{5F31E3C1-1E99-4A83-8F71-CB833A9493C5},,530.787225632864,138172.701568595
"12124",Sumirago,8.77937261,45.74028467,"34009","33953","3",Sponde del fiume, , ,"0",,"0",0,"0","0","0",No,Nessuna informazione,0,0,0,"0","0",Nessuna,Nessuna,Non verificato, ,"7010025",Genova,1999/11/09 00:00:00, ,Agg. Prec. 1952,G. Montrone,532.40049139,{5F31E3C1-1E99-4A83-8F71-CB833A9493C5},,530.787225632864,144418.70576477
"12125",Taino,8.61659007,45.76498844,"34009","33953","3",Sponde del fiume, , ,"0",,"0",0,"0","0","0",No,Nessuna informazione,0,0,0,"0","0",Nessuna,Nessuna,Non verificato, ,"7010025",Genova,1999/11/09 00:00:00, ,Agg. Prec. 1952,G. Montrone,532.40049139,{5F31E3C1-1E99-4A83-8F71-CB833A9493C5},,530.787225632864,147526.816898119
"12126",Ternate,8.69479817,45.7823786,"34009","33953","3",Sponde del fiume, , ,"0",,"0",0,"0","0","0",No,Nessuna informazione,0,0,0,"0","0",Nessuna,Nessuna,Non verificato, ,"7010025",Genova,1999/11/09 00:00:00, ,Agg. Prec. 1952,G. Montrone,532.40049139,{5F31E3C1-1E99-4A83-8F71-CB833A9493C5},,530.787225632864,149144.376120711
"12127",Tradate,8.90569481,45.71375993,"30261","30193","3",Collegamento sponde del fiume, , ,"0",,"0",0,"0","0","0",No,Nessuna informazione,0,0,0,"0","0",Nessuna,Nessuna,Non verificato, ,"7010025",Genova,1999/11/09 00:00:00, ,Agg. Prec. 1952,G. Montrone,47.17820306,{09799A88-40E5-40BC-AAAB-E64BDFF59D26},,47.0383769914515,141873.759610956
"12128",Travedona-Monate,8.67726088,45.80570507,"34009","33953","3",Sponde del fiume, , ,"0",,"0",0,"0","0","0",No,Nessuna informazione,0,0,0,"0","0",Nessuna,Nessuna,Non verificato, ,"7010025",Genova,1999/11/09 00:00:00, ,Agg. Prec. 1952,G. Montrone,532.40049139,{5F31E3C1-1E99-4A83-8F71-CB833A9493C5},,530.787225632864,151781.448583329
"12129",Tronzano Lago Maggiore,8.73551864,46.0914661,"34009","33953","3",Sponde del fiume, , ,"0",,"0",0,"0","0","0",No,Nessuna informazione,0,0,0,"0","0",Nessuna,Nessuna,Non verificato, ,"7010025",Genova,1999/11/09 00:00:00, ,Agg. Prec. 1952,G. Montrone,532.40049139,{5F31E3C1-1E99-4A83-8F71-CB833A9493C5},,530.787225632864,183424.063220697
"12130",Uboldo,9.00306867,45.61071287,"30261","30193","3",Collegamento sponde del fiume, , ,"0",,"0",0,"0","0","0",No,Nessuna informazione,0,0,0,"0","0",Nessuna,Nessuna,Non verificato, ,"7010025",Genova,1999/11/09 00:00:00, ,Agg. Prec. 1952,G. Montrone,47.17820306,{09799A88-40E5-40BC-AAAB-E64BDFF59D26},,47.0383769914515,131049.228089739
"12131",Valganna,8.82394745,45.90276705,"34009","33953","3",Sponde del fiume, , ,"0",,"0",0,"0","0","0",No,Nessuna informazione,0,0,0,"0","0",Nessuna,Nessuna,Non verificato, ,"7010025",Genova,1999/11/09 00:00:00, ,Agg. Prec. 1952,G. Montrone,532.40049139,{5F31E3C1-1E99-4A83-8F71-CB833A9493C5},,530.787225632864,162554.645520144
"12132",Varano Borghi,8.7019374,45.77779049,"34009","33953","3",Sponde del fiume, , ,"0",,"0",0,"0","0","0",No,Nessuna informazione,0,0,0,"0","0",Nessuna,Nessuna,Non verificato, ,"7010025",Genova,1999/11/09 00:00:00, ,Agg. Prec. 1952,G. Montrone,532.40049139,{5F31E3C1-1E99-4A83-8F71-CB833A9493C5},,530.787225632864,148619.15437813
"12133",Varese,8.82286834,45.81701677,"34009","33953","3",Sponde del fiume, , ,"0",,"0",0,"0","0","0",No,Nessuna informazione,0,0,0,"0","0",Nessuna,Nessuna,Non verificato, ,"7010025",Genova,1999/11/09 00:00:00, ,Agg. Prec. 1952,G. Montrone,532.40049139,{5F31E3C1-1E99-4A83-8F71-CB833A9493C5},,530.787225632864,153030.690240597
"12134",Vedano Olona,8.88635653,45.77671212,"30261","30193","3",Collegamento sponde del fiume, , ,"0",,"0",0,"0","0","0",No,Nessuna informazione,0,0,0,"0","0",Nessuna,Nessuna,Non verificato, ,"7010025",Genova,1999/11/09 00:00:00, ,Agg. Prec. 1952,G. Montrone,47.17820306,{09799A88-40E5-40BC-AAAB-E64BDFF59D26},,47.0383769914515,148801.325655402
"12136",Venegono Inferiore,8.89943301,45.73587963,"30261","30193","3",Collegamento sponde del fiume, , ,"0",,"0",0,"0","0","0",No,Nessuna informazione,0,0,0,"0","0",Nessuna,Nessuna,Non verificato, ,"7010025",Genova,1999/11/09 00:00:00, ,Agg. Prec. 1952,G. Montrone,47.17820306,{09799A88-40E5-40BC-AAAB-E64BDFF59D26},,47.0383769914515,144307.091712801
"12137",Venegono Superiore,8.90171645,45.74912455,"30261","30193","3",Collegamento sponde del fiume, , ,"0",,"0",0,"0","0","0",No,Nessuna informazione,0,0,0,"0","0",Nessuna,Nessuna,Non verificato, ,"7010025",Genova,1999/11/09 00:00:00, ,Agg. Prec. 1952,G. Montrone,47.17820306,{09799A88-40E5-40BC-AAAB-E64BDFF59D26},,47.0383769914515,145784.897318699
"12138",Vergiate,8.69540153,45.7245355,"34009","33953","3",Sponde del fiume, , ,"0",,"0",0,"0","0","0",No,Nessuna informazione,0,0,0,"0","0",Nessuna,Nessuna,Non verificato, ,"7010025",Genova,1999/11/09 00:00:00, ,Agg. Prec. 1952,G. Montrone,532.40049139,{5F31E3C1-1E99-4A83-8F71-CB833A9493C5},,530.787225632864,142719.41778796
"12139",Viggi√π,8.90704038,45.8720108,"30261","30193","3",Collegamento sponde del fiume, , ,"0",,"0",0,"0","0","0",No,Nessuna informazione,0,0,0,"0","0",Nessuna,Nessuna,Non verificato, ,"7010025",Genova,1999/11/09 00:00:00, ,Agg. Prec. 1952,G. Montrone,47.17820306,{09799A88-40E5-40BC-AAAB-E64BDFF59D26},,47.0383769914515,159443.150210303
"12140",Vizzola Ticino,8.68505079,45.63123483,"34009","33953","3",Sponde del fiume, , ,"0",,"0",0,"0","0","0",No,Nessuna informazione,0,0,0,"0","0",Nessuna,Nessuna,Non verificato, ,"7010025",Genova,1999/11/09 00:00:00, ,Agg. Prec. 1952,G. Montrone,532.40049139,{5F31E3C1-1E99-4A83-8F71-CB833A9493C5},,530.787225632864,132388.561377042
"12141",Sangiano,8.63179044,45.8762912,"34009","33953","3",Sponde del fiume, , ,"0",,"0",0,"0","0","0",No,Nessuna informazione,0,0,0,"0","0",Nessuna,Nessuna,Non verificato, ,"7010025",Genova,1999/11/09 00:00:00, ,Agg. Prec. 1952,G. Montrone,532.40049139,{5F31E3C1-1E99-4A83-8F71-CB833A9493C5},,530.787225632864,159788.311771324
"12142",Maccagno con Pino e Veddasca,8.74237,46.0426,"34009","33953","3",Sponde del fiume, , ,"0",,"0",0,"0","0","0",No,Nessuna informazione,0,0,0,"0","0",Nessuna,Nessuna,Non verificato, ,"7010025",Genova,1999/11/09 00:00:00, ,Agg. Prec. 1952,G. Montrone,532.40049139,{5F31E3C1-1E99-4A83-8F71-CB833A9493C5},,530.787225632864,177991.834034674
"13003",Albavilla,9.18930004,45.8010947,"34008","33952","3",Sponde del fiume, , ,"0",,"0",0,"0","0","0",No,Nessuna informazione,0,0,0,"0","0",Nessuna,Nessuna,Non verificato, ,"7010025",Genova,1999/11/09 00:00:00, ,Agg. Prec. 1952,G. Montrone,549.52436624,{D71DF15E-6EAC-4ABD-BAC2-85729E0AC293},,547.895105963962,154142.215067694
"13004",Albese con Cassano,9.16474347,45.79543363,"34008","33952","3",Sponde del fiume, , ,"0",,"0",0,"0","0","0",No,Nessuna informazione,0,0,0,"0","0",Nessuna,Nessuna,Non verificato, ,"7010025",Genova,1999/11/09 00:00:00, ,Agg. Prec. 1952,G. Montrone,549.52436624,{D71DF15E-6EAC-4ABD-BAC2-85729E0AC293},,547.895105963962,153176.489847264
"13005",Albiolo,8.93736248,45.80680091,"30261","30193","3",Collegamento sponde del fiume, , ,"0",,"0",0,"0","0","0",No,Nessuna informazione,0,0,0,"0","0",Nessuna,Nessuna,Non verificato, ,"7010025",Genova,1999/11/09 00:00:00, ,Agg. Prec. 1952,G. Montrone,47.17820306,{09799A88-40E5-40BC-AAAB-E64BDFF59D26},,47.0383769914515,152327.872944047
"13006",Alserio,9.19837284,45.77868888,"34008","33952","3",Sponde del fiume, , ,"0",,"0",0,"0","0","0",No,Nessuna informazione,0,0,0,"0","0",Nessuna,Nessuna,Non verificato, ,"7010025",Genova,1999/11/09 00:00:00, ,Agg. Prec. 1952,G. Montrone,549.52436624,{D71DF15E-6EAC-4ABD-BAC2-85729E0AC293},,547.895105963962,151834.018604225
"13007",Alzate Brianza,9.18202575,45.76698007,"34008","33952","3",Sponde del fiume, , ,"0",,"0",0,"0","0","0",No,Nessuna informazione,0,0,0,"0","0",Nessuna,Nessuna,Non verificato, ,"7010025",Genova,1999/11/09 00:00:00, ,Agg. Prec. 1952,G. Montrone,549.52436624,{D71DF15E-6EAC-4ABD-BAC2-85729E0AC293},,547.895105963962,150313.291249542
"13009",Anzano del Parco,9.19875952,45.77086446,"34008","33952","3",Sponde del fiume, , ,"0",,"0",0,"0","0","0",No,Nessuna informazione,0,0,0,"0","0",Nessuna,Nessuna,Non verificato, ,"7010025",Genova,1999/11/09 00:00:00, ,Agg. Prec. 1952,G. Montrone,549.52436624,{D71DF15E-6EAC-4ABD-BAC2-85729E0AC293},,547.895105963962,150987.458135984
"13010",Appiano Gentile,8.97949173,45.73500438,"30261","30193","3",Collegamento sponde del fiume, , ,"0",,"0",0,"0","0","0",No,Nessuna informazione,0,0,0,"0","0",Nessuna,Nessuna,Non verificato, ,"7010025",Genova,1999/11/09 00:00:00, ,Agg. Prec. 1952,G. Montrone,47.17820306,{09799A88-40E5-40BC-AAAB-E64BDFF59D26},,47.0383769914515,144612.06767517
"13011",Argegno,9.12740292,45.94508355,"30261","30193","3",Collegamento sponde del fiume, , ,"0",,"0",0,"0","0","0",No,Nessuna informazione,0,0,0,"0","0",Nessuna,Nessuna,Non verificato, ,"7010025",Genova,1999/11/09 00:00:00, ,Agg. Prec. 1952,G. Montrone,47.17820306,{09799A88-40E5-40BC-AAAB-E64BDFF59D26},,47.0383769914515,169128.980042093
"13012",Arosio,9.20766723,45.71664742,"34008","33952","3",Sponde del fiume, , ,"0",,"0",0,"0","0","0",No,Nessuna informazione,0,0,0,"0","0",Nessuna,Nessuna,Non verificato, ,"7010025",Genova,1999/11/09 00:00:00, ,Agg. Prec. 1952,G. Montrone,549.52436624,{D71DF15E-6EAC-4ABD-BAC2-85729E0AC293},,547.895105963962,145229.783625756
"13013",Asso,9.26941885,45.86165523,"34008","33952","3",Sponde del fiume, , ,"0",,"0",0,"0","0","0",No,Nessuna informazione,0,0,0,"0","0",Nessuna,Nessuna,Non verificato, ,"7010025",Genova,1999/11/09 00:00:00, ,Agg. Prec. 1952,G. Montrone,549.52436624,{D71DF15E-6EAC-4ABD-BAC2-85729E0AC293},,547.895105963962,161994.252748518
"13015",Barni,9.26396688,45.91087559,"34008","33952","3",Sponde del fiume, , ,"0",,"0",0,"0","0","0",No,Nessuna informazione,0,0,0,"0","0",Nessuna,Nessuna,Non verificato, ,"7010025",Genova,1999/11/09 00:00:00, ,Agg. Prec. 1952,G. Montrone,549.52436624,{D71DF15E-6EAC-4ABD-BAC2-85729E0AC293},,547.895105963962,167246.867705973
"13021",Bene Lario,9.18360351,46.0286252,"34008","33952","3",Sponde del fiume, , ,"0",,"0",0,"0","0","0",No,Nessuna informazione,0,0,0,"0","0",Nessuna,Nessuna,Non verificato, ,"7010025",Genova,1999/11/09 00:00:00, ,Agg. Prec. 1952,G. Montrone,549.52436624,{D71DF15E-6EAC-4ABD-BAC2-85729E0AC293},,547.895105963962,178964.750459853
"13022",Beregazzo con Figliaro,8.9508768,45.77587949,"30261","30193","3",Collegamento sponde del fiume, , ,"0",,"0",0,"0","0","0",No,Nessuna informazione,0,0,0,"0","0",Nessuna,Nessuna,Non verificato, ,"7010025",Genova,1999/11/09 00:00:00, ,Agg. Prec. 1952,G. Montrone,47.17820306,{09799A88-40E5-40BC-AAAB-E64BDFF59D26},,47.0383769914515,148967.158285988
"13023",Binago,8.92256563,45.78468601,"30261","30193","3",Collegamento sponde del fiume, , ,"0",,"0",0,"0","0","0",No,Nessuna informazione,0,0,0,"0","0",Nessuna,Nessuna,Non verificato, ,"7010025",Genova,1999/11/09 00:00:00, ,Agg. Prec. 1952,G. Montrone,47.17820306,{09799A88-40E5-40BC-AAAB-E64BDFF59D26},,47.0383769914515,149809.597237488
"13024",Bizzarone,8.94596475,45.83503924,"30261","30193","3",Collegamento sponde del fiume, , ,"0",,"0",0,"0","0","0",No,Nessuna informazione,0,0,0,"0","0",Nessuna,Nessuna,Non verificato, ,"7010025",Genova,1999/11/09 00:00:00, ,Agg. Prec. 1952,G. Montrone,47.17820306,{09799A88-40E5-40BC-AAAB-E64BDFF59D26},,47.0383769914515,155500.501854732
"13025",Blessagno,9.09739094,45.95989389,"30261","30193","3",Collegamento sponde del fiume, , ,"0",,"0",0,"0","0","0",No,Nessuna informazione,0,0,0,"0","0",Nessuna,Nessuna,Non verificato, ,"7010025",Genova,1999/11/09 00:00:00, ,Agg. Prec. 1952,G. Montrone,47.17820306,{09799A88-40E5-40BC-AAAB-E64BDFF59D26},,47.0383769914515,170442.852992866
"13026",Blevio,9.10486477,45.84064094,"30261","30193","3",Collegamento sponde del fiume, , ,"0",,"0",0,"0","0","0",No,Nessuna informazione,0,0,0,"0","0",Nessuna,Nessuna,Non verificato, ,"7010025",Genova,1999/11/09 00:00:00, ,Agg. Prec. 1952,G. Montrone,47.17820306,{09799A88-40E5-40BC-AAAB-E64BDFF59D26},,47.0383769914515,157394.096227225
"13028",Bregnano,9.06252406,45.6989627,"30261","30193","3",Collegamento sponde del fiume, , ,"0",,"0",0,"0","0","0",No,Nessuna informazione,0,0,0,"0","0",Nessuna,Nessuna,Non verificato, ,"7010025",Genova,1999/11/09 00:00:00, ,Agg. Prec. 1952,G. Montrone,47.17820306,{09799A88-40E5-40BC-AAAB-E64BDFF59D26},,47.0383769914515,141348.317012476
"13029",Brenna,9.18775301,45.74164179,"34008","33952","3",Sponde del fiume, , ,"0",,"0",0,"0","0","0",No,Nessuna informazione,0,0,0,"0","0",Nessuna,Nessuna,Non verificato, ,"7010025",Genova,1999/11/09 00:00:00, ,Agg. Prec. 1952,G. Montrone,549.52436624,{D71DF15E-6EAC-4ABD-BAC2-85729E0AC293},,547.895105963962,147635.963550674
"13030",Brienno,9.13139045,45.91174236,"30261","30193","3",Collegamento sponde del fiume, , ,"0",,"0",0,"0","0","0",No,Nessuna informazione,0,0,0,"0","0",Nessuna,Nessuna,Non verificato, ,"7010025",Genova,1999/11/09 00:00:00, ,Agg. Prec. 1952,G. Montrone,47.17820306,{09799A88-40E5-40BC-AAAB-E64BDFF59D26},,47.0383769914515,165509.506138294
"13032",Brunate,9.09641584,45.81977176,"30261","30193","3",Collegamento sponde del fiume, , ,"0",,"0",0,"0","0","0",No,Nessuna informazione,0,0,0,"0","0",Nessuna,Nessuna,Non verificato, ,"7010025",Genova,1999/11/09 00:00:00, ,Agg. Prec. 1952,G. Montrone,47.17820306,{09799A88-40E5-40BC-AAAB-E64BDFF59D26},,47.0383769914515,155005.82388779
"13034",Bulgarograsso,9.01101248,45.74813449,"30261","30193","3",Collegamento sponde del fiume, , ,"0",,"0",0,"0","0","0",No,Nessuna informazione,0,0,0,"0","0",Nessuna,Nessuna,Non verificato, ,"7010025",Genova,1999/11/09 00:00:00, ,Agg. Prec. 1952,G. Montrone,47.17820306,{09799A88-40E5-40BC-AAAB-E64BDFF59D26},,47.0383769914515,146296.290619258
"13035",Cabiate,9.16670282,45.67319795,"34008","33952","3",Sponde del fiume, , ,"0",,"0",0,"0","0","0",No,Nessuna informazione,0,0,0,"0","0",Nessuna,Nessuna,Non verificato, ,"7010025",Genova,1999/11/09 00:00:00, ,Agg. Prec. 1952,G. Montrone,549.52436624,{D71DF15E-6EAC-4ABD-BAC2-85729E0AC293},,547.895105963962,139858.266250616
"13036",Cadorago,9.03374726,45.7239038,"30261","30193","3",Collegamento sponde del fiume, , ,"0",,"0",0,"0","0","0",No,Nessuna informazione,0,0,0,"0","0",Nessuna,Nessuna,Non verificato, ,"7010025",Genova,1999/11/09 00:00:00, ,Agg. Prec. 1952,G. Montrone,47.17820306,{09799A88-40E5-40BC-AAAB-E64BDFF59D26},,47.0383769914515,143814.729144501
"13037",Caglio,9.23631564,45.87057233,"34008","33952","3",Sponde del fiume, , ,"0",,"0",0,"0","0","0",No,Nessuna informazione,0,0,0,"0","0",Nessuna,Nessuna,Non verificato, ,"7010025",Genova,1999/11/09 00:00:00, ,Agg. Prec. 1952,G. Montrone,549.52436624,{D71DF15E-6EAC-4ABD-BAC2-85729E0AC293},,547.895105963962,162424.365725014
"13038",Cagno,8.92405315,45.80876673,"30261","30193","3",Collegamento sponde del fiume, , ,"0",,"0",0,"0","0","0",No,Nessuna informazione,0,0,0,"0","0",Nessuna,Nessuna,Non verificato, ,"7010025",Genova,1999/11/09 00:00:00, ,Agg. Prec. 1952,G. Montrone,47.17820306,{09799A88-40E5-40BC-AAAB-E64BDFF59D26},,47.0383769914515,152487.397938716
"13040",Campione d'Italia,8.970754,45.97007944,"30261","30193","3",Collegamento sponde del fiume, , ,"0",,"0",0,"0","0","0",No,Nessuna informazione,0,0,0,"0","0",Nessuna,Nessuna,Non verificato, ,"7010025",Genova,1999/11/09 00:00:00, ,Agg. Prec. 1952,G. Montrone,47.17820306,{09799A88-40E5-40BC-AAAB-E64BDFF59D26},,47.0383769914515,170598.642935382
"13041",Cant√π,9.12658065,45.73938659,"34008","33952","3",Sponde del fiume, , ,"0",,"0",0,"0","0","0",No,Nessuna informazione,0,0,0,"0","0",Nessuna,Nessuna,Non verificato, ,"7010025",Genova,1999/11/09 00:00:00, ,Agg. Prec. 1952,G. Montrone,549.52436624,{D71DF15E-6EAC-4ABD-BAC2-85729E0AC293},,547.895105963962,146535.96443966
"13042",Canzo,9.27350212,45.85003757,"34008","33952","3",Sponde del fiume, , ,"0",,"0",0,"0","0","0",No,Nessuna informazione,0,0,0,"0","0",Nessuna,Nessuna,Non verificato, ,"7010025",Genova,1999/11/09 00:00:00, ,Agg. Prec. 1952,G. Montrone,549.52436624,{D71DF15E-6EAC-4ABD-BAC2-85729E0AC293},,547.895105963962,160804.738741963
"13043",Capiago Intimiano,9.1243087,45.7721228,"34008","33952","3",Sponde del fiume, , ,"0",,"0",0,"0","0","0",No,Nessuna informazione,0,0,0,"0","0",Nessuna,Nessuna,Non verificato, ,"7010025",Genova,1999/11/09 00:00:00, ,Agg. Prec. 1952,G. Montrone,549.52436624,{D71DF15E-6EAC-4ABD-BAC2-85729E0AC293},,547.895105963962,150097.240727976
"13044",Carate Urio,9.12239702,45.87196643,"30261","30193","3",Collegamento sponde del fiume, , ,"0",,"0",0,"0","0","0",No,Nessuna informazione,0,0,0,"0","0",Nessuna,Nessuna,Non verificato, ,"7010025",Genova,1999/11/09 00:00:00, ,Agg. Prec. 1952,G. Montrone,47.17820306,{09799A88-40E5-40BC-AAAB-E64BDFF59D26},,47.0383769914515,161035.592018981
"13045",Carbonate,8.94040214,45.68506128,"30261","30193","3",Collegamento sponde del fiume, , ,"0",,"0",0,"0","0","0",No,Nessuna informazione,0,0,0,"0","0",Nessuna,Nessuna,Non verificato, ,"7010025",Genova,1999/11/09 00:00:00, ,Agg. Prec. 1952,G. Montrone,47.17820306,{09799A88-40E5-40BC-AAAB-E64BDFF59D26},,47.0383769914515,138845.018379654
"13046",Carimate,9.11525094,45.70268568,"34008","33952","3",Sponde del fiume, , ,"0",,"0",0,"0","0","0",No,Nessuna informazione,0,0,0,"0","0",Nessuna,Nessuna,Non verificato, ,"7010025",Genova,1999/11/09 00:00:00, ,Agg. Prec. 1952,G. Montrone,549.52436624,{D71DF15E-6EAC-4ABD-BAC2-85729E0AC293},,547.895105963962,142369.329047568
"13047",Carlazzo,9.15649403,46.04919611,"30261","30193","3",Collegamento sponde del fiume, , ,"0",,"0",0,"0","0","0",No,Nessuna informazione,0,0,0,"0","0",Nessuna,Nessuna,Non verificato, ,"7010025",Genova,1999/11/09 00:00:00, ,Agg. Prec. 1952,G. Montrone,47.17820306,{09799A88-40E5-40BC-AAAB-E64BDFF59D26},,47.0383769914515,180901.193721985
"13048",Carugo,9.18915441,45.70996915,"34008","33952","3",Sponde del fiume, , ,"0",,"0",0,"0","0","0",No,Nessuna informazione,0,0,0,"0","0",Nessuna,Nessuna,Non verificato, ,"7010025",Genova,1999/11/09 00:00:00, ,Agg. Prec. 1952,G. Montrone,549.52436624,{D71DF15E-6EAC-4ABD-BAC2-85729E0AC293},,547.895105963962,144208.230937931
"13050",Casasco d'Intelvi,9.07493421,45.94424398,"30261","30193","3",Collegamento sponde del fiume, , ,"0",,"0",0,"0","0","0",No,Nessuna informazione,0,0,0,"0","0",Nessuna,Nessuna,Non verificato, ,"7010025",Genova,1999/11/09 00:00:00, ,Agg. Prec. 1952,G. Montrone,47.17820306,{09799A88-40E5-40BC-AAAB-E64BDFF59D26},,47.0383769914515,168501.802574911
"13052",Caslino d'Erba,9.22712175,45.83756065,"34008","33952","3",Sponde del fiume, , ,"0",,"0",0,"0","0","0",No,Nessuna informazione,0,0,0,"0","0",Nessuna,Nessuna,Non verificato, ,"7010025",Genova,1999/11/09 00:00:00, ,Agg. Prec. 1952,G. Montrone,549.52436624,{D71DF15E-6EAC-4ABD-BAC2-85729E0AC293},,547.895105963962,158688.017229023
"13053",Casnate con Bernate,9.0746556,45.75679233,"30261","30193","3",Collegamento sponde del fiume, , ,"0",,"0",0,"0","0","0",No,Nessuna informazione,0,0,0,"0","0",Nessuna,Nessuna,Non verificato, ,"7010025",Genova,1999/11/09 00:00:00, ,Agg. Prec. 1952,G. Montrone,47.17820306,{09799A88-40E5-40BC-AAAB-E64BDFF59D26},,47.0383769914515,147841.936814499
"13055",Cassina Rizzardi,9.03038994,45.75103988,"30261","30193","3",Collegamento sponde del fiume, , ,"0",,"0",0,"0","0","0",No,Nessuna informazione,0,0,0,"0","0",Nessuna,Nessuna,Non verificato, ,"7010025",Genova,1999/11/09 00:00:00, ,Agg. Prec. 1952,G. Montrone,47.17820306,{09799A88-40E5-40BC-AAAB-E64BDFF59D26},,47.0383769914515,146779.608522822
"13058",Castelmarte,9.23335971,45.83250887,"34008","33952","3",Sponde del fiume, , ,"0",,"0",0,"0","0","0",No,Nessuna informazione,0,0,0,"0","0",Nessuna,Nessuna,Non verificato, ,"7010025",Genova,1999/11/09 00:00:00, ,Agg. Prec. 1952,G. Montrone,549.52436624,{D71DF15E-6EAC-4ABD-BAC2-85729E0AC293},,547.895105963962,158236.89277054
"13059",Castelnuovo Bozzente,8.94137967,45.76345124,"30261","30193","3",Collegamento sponde del fiume, , ,"0",,"0",0,"0","0","0",No,Nessuna informazione,0,0,0,"0","0",Nessuna,Nessuna,Non verificato, ,"7010025",Genova,1999/11/09 00:00:00, ,Agg. Prec. 1952,G. Montrone,47.17820306,{09799A88-40E5-40BC-AAAB-E64BDFF59D26},,47.0383769914515,147540.326111995
"13060",Castiglione d'Intelvi,9.09127875,45.95530894,"30261","30193","3",Collegamento sponde del fiume, , ,"0",,"0",0,"0","0","0",No,Nessuna informazione,0,0,0,"0","0",Nessuna,Nessuna,Non verificato, ,"7010025",Genova,1999/11/09 00:00:00, ,Agg. Prec. 1952,G. Montrone,47.17820306,{09799A88-40E5-40BC-AAAB-E64BDFF59D26},,47.0383769914515,169877.309330751
"13062",Cavargna,9.11202583,46.09067552,"30261","30193","3",Collegamento sponde del fiume, , ,"0",,"0",0,"0","0","0",No,Nessuna informazione,0,0,0,"0","0",Nessuna,Nessuna,Non verificato, ,"7010025",Genova,1999/11/09 00:00:00, ,Agg. Prec. 1952,G. Montrone,47.17820306,{09799A88-40E5-40BC-AAAB-E64BDFF59D26},,47.0383769914515,185000.207170652
"13063",Cerano d'Intelvi,9.08764297,45.94446407,"30261","30193","3",Collegamento sponde del fiume, , ,"0",,"0",0,"0","0","0",No,Nessuna informazione,0,0,0,"0","0",Nessuna,Nessuna,Non verificato, ,"7010025",Genova,1999/11/09 00:00:00, ,Agg. Prec. 1952,G. Montrone,47.17820306,{09799A88-40E5-40BC-AAAB-E64BDFF59D26},,47.0383769914515,168646.526390905
"13064",Cermenate,9.08268731,45.698567,"30261","30193","3",Collegamento sponde del fiume, , ,"0",,"0",0,"0","0","0",No,Nessuna informazione,0,0,0,"0","0",Nessuna,Nessuna,Non verificato, ,"7010025",Genova,1999/11/09 00:00:00, ,Agg. Prec. 1952,G. Montrone,47.17820306,{09799A88-40E5-40BC-AAAB-E64BDFF59D26},,47.0383769914515,141525.894252119
"13065",Cernobbio,9.07435334,45.83962461,"30261","30193","3",Collegamento sponde del fiume, , ,"0",,"0",0,"0","0","0",No,Nessuna informazione,0,0,0,"0","0",Nessuna,Nessuna,Non verificato, ,"7010025",Genova,1999/11/09 00:00:00, ,Agg. Prec. 1952,G. Montrone,47.17820306,{09799A88-40E5-40BC-AAAB-E64BDFF59D26},,47.0383769914515,156961.50318601
"13068",Cirimido,9.01108636,45.69881381,"30261","30193","3",Collegamento sponde del fiume, , ,"0",,"0",0,"0","0","0",No,Nessuna informazione,0,0,0,"0","0",Nessuna,Nessuna,Non verificato, ,"7010025",Genova,1999/11/09 00:00:00, ,Agg. Prec. 1952,G. Montrone,47.17820306,{09799A88-40E5-40BC-AAAB-E64BDFF59D26},,47.0383769914515,140847.379735578
"13071",Claino con Osteno,9.08434077,46.00691802,"30261","30193","3",Collegamento sponde del fiume, , ,"0",,"0",0,"0","0","0",No,Nessuna informazione,0,0,0,"0","0",Nessuna,Nessuna,Non verificato, ,"7010025",Genova,1999/11/09 00:00:00, ,Agg. Prec. 1952,G. Montrone,47.17820306,{09799A88-40E5-40BC-AAAB-E64BDFF59D26},,47.0383769914515,175502.516412783
"13074",Colonno,9.15409988,45.95773383,"30261","30193","3",Collegamento sponde del fiume, , ,"0",,"0",0,"0","0","0",No,Nessuna informazione,0,0,0,"0","0",Nessuna,Nessuna,Non verificato, ,"7010025",Genova,1999/11/09 00:00:00, ,Agg. Prec. 1952,G. Montrone,47.17820306,{09799A88-40E5-40BC-AAAB-E64BDFF59D26},,47.0383769914515,170827.299823199
"13075",Como,9.08515955,45.8099912,"30261","30193","3",Collegamento sponde del fiume, , ,"0",,"0",0,"0","0","0",No,Nessuna informazione,0,0,0,"0","0",Nessuna,Nessuna,Non verificato, ,"7010025",Genova,1999/11/09 00:00:00, ,Agg. Prec. 1952,G. Montrone,47.17820306,{09799A88-40E5-40BC-AAAB-E64BDFF59D26},,47.0383769914515,153808.603592036
"13077",Corrido,9.13701384,46.04741939,"30261","30193","3",Collegamento sponde del fiume, , ,"0",,"0",0,"0","0","0",No,Nessuna informazione,0,0,0,"0","0",Nessuna,Nessuna,Non verificato, ,"7010025",Genova,1999/11/09 00:00:00, ,Agg. Prec. 1952,G. Montrone,47.17820306,{09799A88-40E5-40BC-AAAB-E64BDFF59D26},,47.0383769914515,180490.416429879
"13083",Cremia,9.2707257,46.0857975,"34008","33952","3",Sponde del fiume, , ,"0",,"0",0,"0","0","0",No,Nessuna informazione,0,0,0,"0","0",Nessuna,Nessuna,Non verificato, ,"7010025",Genova,1999/11/09 00:00:00, ,Agg. Prec. 1952,G. Montrone,549.52436624,{D71DF15E-6EAC-4ABD-BAC2-85729E0AC293},,547.895105963962,186397.190538571
"13084",Cucciago,9.09150332,45.73888869,"30261","30193","3",Collegamento sponde del fiume, , ,"0",,"0",0,"0","0","0",No,Nessuna informazione,0,0,0,"0","0",Nessuna,Nessuna,Non verificato, ,"7010025",Genova,1999/11/09 00:00:00, ,Agg. Prec. 1952,G. Montrone,47.17820306,{09799A88-40E5-40BC-AAAB-E64BDFF59D26},,47.0383769914515,146057.871961267
"13085",Cusino,9.15275144,46.07437799,"30261","30193","3",Collegamento sponde del fiume, , ,"0",,"0",0,"0","0","0",No,Nessuna informazione,0,0,0,"0","0",Nessuna,Nessuna,Non verificato, ,"7010025",Genova,1999/11/09 00:00:00, ,Agg. Prec. 1952,G. Montrone,47.17820306,{09799A88-40E5-40BC-AAAB-E64BDFF59D26},,47.0383769914515,183627.468467143
"13087",Dizzasco,9.10146455,45.94387236,"30261","30193","3",Collegamento sponde del fiume, , ,"0",,"0",0,"0","0","0",No,Nessuna informazione,0,0,0,"0","0",Nessuna,Nessuna,Non verificato, ,"7010025",Genova,1999/11/09 00:00:00, ,Agg. Prec. 1952,G. Montrone,47.17820306,{09799A88-40E5-40BC-AAAB-E64BDFF59D26},,47.0383769914515,168718.953516745
"13089",Domaso,9.32846683,46.15194609,"34008","33952","3",Sponde del fiume, , ,"0",,"0",0,"0","0","0",No,Nessuna informazione,0,0,0,"0","0",Nessuna,Nessuna,Non verificato, ,"7010025",Genova,1999/11/09 00:00:00, ,Agg. Prec. 1952,G. Montrone,549.52436624,{D71DF15E-6EAC-4ABD-BAC2-85729E0AC293},,547.895105963962,194484.817839062
"13090",Dongo,9.27949844,46.12302711,"34008","33952","3",Sponde del fiume, , ,"0",,"0",0,"0","0","0",No,Nessuna informazione,0,0,0,"0","0",Nessuna,Nessuna,Non verificato, ,"7010025",Genova,1999/11/09 00:00:00, ,Agg. Prec. 1952,G. Montrone,549.52436624,{D71DF15E-6EAC-4ABD-BAC2-85729E0AC293},,547.895105963962,190587.252502531
"13092",Dosso del Liro,9.27369623,46.16368321,"34008","33952","3",Sponde del fiume, , ,"0",,"0",0,"0","0","0",No,Nessuna informazione,0,0,0,"0","0",Nessuna,Nessuna,Non verificato, ,"7010025",Genova,1999/11/09 00:00:00, ,Agg. Prec. 1952,G. Montrone,549.52436624,{D71DF15E-6EAC-4ABD-BAC2-85729E0AC293},,547.895105963962,194942.102878964
"13095",Erba,9.22318311,45.81193507,"34008","33952","3",Sponde del fiume, , ,"0",,"0",0,"0","0","0",No,Nessuna informazione,0,0,0,"0","0",Nessuna,Nessuna,Non verificato, ,"7010025",Genova,1999/11/09 00:00:00, ,Agg. Prec. 1952,G. Montrone,549.52436624,{D71DF15E-6EAC-4ABD-BAC2-85729E0AC293},,547.895105963962,155837.856555625
"13097",Eupilio,9.26770263,45.81692297,"34008","33952","3",Sponde del fiume, , ,"0",,"0",0,"0","0","0",No,Nessuna informazione,0,0,0,"0","0",Nessuna,Nessuna,Non verificato, ,"7010025",Genova,1999/11/09 00:00:00, ,Agg. Prec. 1952,G. Montrone,549.52436624,{D71DF15E-6EAC-4ABD-BAC2-85729E0AC293},,547.895105963962,157117.684368345
"13098",Faggeto Lario,9.15983766,45.85807982,"34008","33952","3",Sponde del fiume, , ,"0",,"0",0,"0","0","0",No,Nessuna informazione,0,0,0,"0","0",Nessuna,Nessuna,Non verificato, ,"7010025",Genova,1999/11/09 00:00:00, ,Agg. Prec. 1952,G. Montrone,549.52436624,{D71DF15E-6EAC-4ABD-BAC2-85729E0AC293},,547.895105963962,159968.787965355
"13099",Faloppio,8.96320128,45.81217463,"30261","30193","3",Collegamento sponde del fiume, , ,"0",,"0",0,"0","0","0",No,Nessuna informazione,0,0,0,"0","0",Nessuna,Nessuna,Non verificato, ,"7010025",Genova,1999/11/09 00:00:00, ,Agg. Prec. 1952,G. Montrone,47.17820306,{09799A88-40E5-40BC-AAAB-E64BDFF59D26},,47.0383769914515,153057.474001325
"13100",Fenegr√≤,9.00273087,45.70159962,"30261","30193","3",Collegamento sponde del fiume, , ,"0",,"0",0,"0","0","0",No,Nessuna informazione,0,0,0,"0","0",Nessuna,Nessuna,Non verificato, ,"7010025",Genova,1999/11/09 00:00:00, ,Agg. Prec. 1952,G. Montrone,47.17820306,{09799A88-40E5-40BC-AAAB-E64BDFF59D26},,47.0383769914515,141087.404863537
"13101",Figino Serenza,9.12719392,45.71163141,"34008","33952","3",Sponde del fiume, , ,"0",,"0",0,"0","0","0",No,Nessuna informazione,0,0,0,"0","0",Nessuna,Nessuna,Non verificato, ,"7010025",Genova,1999/11/09 00:00:00, ,Agg. Prec. 1952,G. Montrone,549.52436624,{D71DF15E-6EAC-4ABD-BAC2-85729E0AC293},,547.895105963962,143502.630217626
"13102",Fino Mornasco,9.04857887,45.74611655,"30261","30193","3",Collegamento sponde del fiume, , ,"0",,"0",0,"0","0","0",No,Nessuna informazione,0,0,0,"0","0",Nessuna,Nessuna,Non verificato, ,"7010025",Genova,1999/11/09 00:00:00, ,Agg. Prec. 1952,G. Montrone,47.17820306,{09799A88-40E5-40BC-AAAB-E64BDFF59D26},,47.0383769914515,146403.263172901
"13106",Garzeno,9.24985634,46.13409064,"34008","33952","3",Sponde del fiume, , ,"0",,"0",0,"0","0","0",No,Nessuna informazione,0,0,0,"0","0",Nessuna,Nessuna,Non verificato, ,"7010025",Genova,1999/11/09 00:00:00, ,Agg. Prec. 1952,G. Montrone,549.52436624,{D71DF15E-6EAC-4ABD-BAC2-85729E0AC293},,547.895105963962,191376.763701608
"13107",Gera Lario,9.37110185,46.17062506,"34008","33952","3",Sponde del fiume, , ,"0",,"0",0,"0","0","0",No,Nessuna informazione,0,0,0,"0","0",Nessuna,Nessuna,Non verificato, ,"7010025",Genova,1999/11/09 00:00:00, ,Agg. Prec. 1952,G. Montrone,549.52436624,{D71DF15E-6EAC-4ABD-BAC2-85729E0AC293},,547.895105963962,197213.763724485
"13110",Grandate,9.05829996,45.7738937,"30261","30193","3",Collegamento sponde del fiume, , ,"0",,"0",0,"0","0","0",No,Nessuna informazione,0,0,0,"0","0",Nessuna,Nessuna,Non verificato, ,"7010025",Genova,1999/11/09 00:00:00, ,Agg. Prec. 1952,G. Montrone,47.17820306,{09799A88-40E5-40BC-AAAB-E64BDFF59D26},,47.0383769914515,149559.401984443
"13111",Grandola ed Uniti,9.20713269,46.03131732,"34008","33952","3",Sponde del fiume, , ,"0",,"0",0,"0","0","0",No,Nessuna informazione,0,0,0,"0","0",Nessuna,Nessuna,Non verificato, ,"7010025",Genova,1999/11/09 00:00:00, ,Agg. Prec. 1952,G. Montrone,549.52436624,{D71DF15E-6EAC-4ABD-BAC2-85729E0AC293},,547.895105963962,179558.694594138
"13113",Griante,9.23500949,45.99694371,"34008","33952","3",Sponde del fiume, , ,"0",,"0",0,"0","0","0",No,Nessuna informazione,0,0,0,"0","0",Nessuna,Nessuna,Non verificato, ,"7010025",Genova,1999/11/09 00:00:00, ,Agg. Prec. 1952,G. Montrone,549.52436624,{D71DF15E-6EAC-4ABD-BAC2-85729E0AC293},,547.895105963962,176181.719217581
"13114",Guanzate,9.01094873,45.72431329,"30261","30193","3",Collegamento sponde del fiume, , ,"0",,"0",0,"0","0","0",No,Nessuna informazione,0,0,0,"0","0",Nessuna,Nessuna,Non verificato, ,"7010025",Genova,1999/11/09 00:00:00, ,Agg. Prec. 1952,G. Montrone,47.17820306,{09799A88-40E5-40BC-AAAB-E64BDFF59D26},,47.0383769914515,143663.436368073
"13118",Inverigo,9.21493527,45.7329273,"34008","33952","3",Sponde del fiume, , ,"0",,"0",0,"0","0","0",No,Nessuna informazione,0,0,0,"0","0",Nessuna,Nessuna,Non verificato, ,"7010025",Genova,1999/11/09 00:00:00, ,Agg. Prec. 1952,G. Montrone,549.52436624,{D71DF15E-6EAC-4ABD-BAC2-85729E0AC293},,547.895105963962,147116.937669058
"13119",Laglio,9.14007012,45.88352177,"30261","30193","3",Collegamento sponde del fiume, , ,"0",,"0",0,"0","0","0",No,Nessuna informazione,0,0,0,"0","0",Nessuna,Nessuna,Non verificato, ,"7010025",Genova,1999/11/09 00:00:00, ,Agg. Prec. 1952,G. Montrone,47.17820306,{09799A88-40E5-40BC-AAAB-E64BDFF59D26},,47.0383769914515,162512.979082592
"13120",Laino,9.07385525,45.98329717,"30261","30193","3",Collegamento sponde del fiume, , ,"0",,"0",0,"0","0","0",No,Nessuna informazione,0,0,0,"0","0",Nessuna,Nessuna,Non verificato, ,"7010025",Genova,1999/11/09 00:00:00, ,Agg. Prec. 1952,G. Montrone,47.17820306,{09799A88-40E5-40BC-AAAB-E64BDFF59D26},,47.0383769914515,172800.920778791
"13121",Lambrugo,9.24151448,45.75846534,"34008","33952","3",Sponde del fiume, , ,"0",,"0",0,"0","0","0",No,Nessuna informazione,0,0,0,"0","0",Nessuna,Nessuna,Non verificato, ,"7010025",Genova,1999/11/09 00:00:00, ,Agg. Prec. 1952,G. Montrone,549.52436624,{D71DF15E-6EAC-4ABD-BAC2-85729E0AC293},,547.895105963962,150332.997241594
"13123",Lasnigo,9.26407017,45.88068666,"34008","33952","3",Sponde del fiume, , ,"0",,"0",0,"0","0","0",No,Nessuna informazione,0,0,0,"0","0",Nessuna,Nessuna,Non verificato, ,"7010025",Genova,1999/11/09 00:00:00, ,Agg. Prec. 1952,G. Montrone,549.52436624,{D71DF15E-6EAC-4ABD-BAC2-85729E0AC293},,547.895105963962,163969.684908453
"13126",Lezzeno,9.19108571,45.94546302,"34008","33952","3",Sponde del fiume, , ,"0",,"0",0,"0","0","0",No,Nessuna informazione,0,0,0,"0","0",Nessuna,Nessuna,Non verificato, ,"7010025",Genova,1999/11/09 00:00:00, ,Agg. Prec. 1952,G. Montrone,549.52436624,{D71DF15E-6EAC-4ABD-BAC2-85729E0AC293},,547.895105963962,169947.291305133
"13128",Limido Comasco,8.98270779,45.68970324,"30261","30193","3",Collegamento sponde del fiume, , ,"0",,"0",0,"0","0","0",No,Nessuna informazione,0,0,0,"0","0",Nessuna,Nessuna,Non verificato, ,"7010025",Genova,1999/11/09 00:00:00, ,Agg. Prec. 1952,G. Montrone,47.17820306,{09799A88-40E5-40BC-AAAB-E64BDFF59D26},,47.0383769914515,139621.268747367
"13129",Lipomo,9.12147915,45.79479996,"30261","30193","3",Collegamento sponde del fiume, , ,"0",,"0",0,"0","0","0",No,Nessuna informazione,0,0,0,"0","0",Nessuna,Nessuna,Non verificato, ,"7010025",Genova,1999/11/09 00:00:00, ,Agg. Prec. 1952,G. Montrone,47.17820306,{09799A88-40E5-40BC-AAAB-E64BDFF59D26},,47.0383769914515,152551.092204497
"13130",Livo,9.30419652,46.16890738,"34008","33952","3",Sponde del fiume, , ,"0",,"0",0,"0","0","0",No,Nessuna informazione,0,0,0,"0","0",Nessuna,Nessuna,Non verificato, ,"7010025",Genova,1999/11/09 00:00:00, ,Agg. Prec. 1952,G. Montrone,549.52436624,{D71DF15E-6EAC-4ABD-BAC2-85729E0AC293},,547.895105963962,195956.380414171
"13131",Locate Varesino,8.93081757,45.69035206,"30261","30193","3",Collegamento sponde del fiume, , ,"0",,"0",0,"0","0","0",No,Nessuna informazione,0,0,0,"0","0",Nessuna,Nessuna,Non verificato, ,"7010025",Genova,1999/11/09 00:00:00, ,Agg. Prec. 1952,G. Montrone,47.17820306,{09799A88-40E5-40BC-AAAB-E64BDFF59D26},,47.0383769914515,139383.21658529
"13133",Lomazzo,9.04014928,45.69902477,"30261","30193","3",Collegamento sponde del fiume, , ,"0",,"0",0,"0","0","0",No,Nessuna informazione,0,0,0,"0","0",Nessuna,Nessuna,Non verificato, ,"7010025",Genova,1999/11/09 00:00:00, ,Agg. Prec. 1952,G. Montrone,47.17820306,{09799A88-40E5-40BC-AAAB-E64BDFF59D26},,47.0383769914515,141130.341218953
"13134",Longone al Segrino,9.25099763,45.81724782,"34008","33952","3",Sponde del fiume, , ,"0",,"0",0,"0","0","0",No,Nessuna informazione,0,0,0,"0","0",Nessuna,Nessuna,Non verificato, ,"7010025",Genova,1999/11/09 00:00:00, ,Agg. Prec. 1952,G. Montrone,549.52436624,{D71DF15E-6EAC-4ABD-BAC2-85729E0AC293},,547.895105963962,156867.570098712
"13135",Luisago,9.04345668,45.76121718,"30261","30193","3",Collegamento sponde del fiume, , ,"0",,"0",0,"0","0","0",No,Nessuna informazione,0,0,0,"0","0",Nessuna,Nessuna,Non verificato, ,"7010025",Genova,1999/11/09 00:00:00, ,Agg. Prec. 1952,G. Montrone,47.17820306,{09799A88-40E5-40BC-AAAB-E64BDFF59D26},,47.0383769914515,148020.469594328
"13136",Lurago d'Erba,9.22473624,45.75348513,"34008","33952","3",Sponde del fiume, , ,"0",,"0",0,"0","0","0",No,Nessuna informazione,0,0,0,"0","0",Nessuna,Nessuna,Non verificato, ,"7010025",Genova,1999/11/09 00:00:00, ,Agg. Prec. 1952,G. Montrone,549.52436624,{D71DF15E-6EAC-4ABD-BAC2-85729E0AC293},,547.895105963962,149510.542482168
"13137",Lurago Marinone,8.98394626,45.70780673,"30261","30193","3",Collegamento sponde del fiume, , ,"0",,"0",0,"0","0","0",No,Nessuna informazione,0,0,0,"0","0",Nessuna,Nessuna,Non verificato, ,"7010025",Genova,1999/11/09 00:00:00, ,Agg. Prec. 1952,G. Montrone,47.17820306,{09799A88-40E5-40BC-AAAB-E64BDFF59D26},,47.0383769914515,141633.001628614
"13138",Lurate Caccivio,9.00067971,45.7655543,"30261","30193","3",Collegamento sponde del fiume, , ,"0",,"0",0,"0","0","0",No,Nessuna informazione,0,0,0,"0","0",Nessuna,Nessuna,Non verificato, ,"7010025",Genova,1999/11/09 00:00:00, ,Agg. Prec. 1952,G. Montrone,47.17820306,{09799A88-40E5-40BC-AAAB-E64BDFF59D26},,47.0383769914515,148142.371259609
"13139",Magreglio,9.26189473,45.92002394,"34008","33952","3",Sponde del fiume, , ,"0",,"0",0,"0","0","0",No,Nessuna informazione,0,0,0,"0","0",Nessuna,Nessuna,Non verificato, ,"7010025",Genova,1999/11/09 00:00:00, ,Agg. Prec. 1952,G. Montrone,549.52436624,{D71DF15E-6EAC-4ABD-BAC2-85729E0AC293},,547.895105963962,168207.838143328
"13143",Mariano Comense,9.18251093,45.69709757,"34008","33952","3",Sponde del fiume, , ,"0",,"0",0,"0","0","0",No,Nessuna informazione,0,0,0,"0","0",Nessuna,Nessuna,Non verificato, ,"7010025",Genova,1999/11/09 00:00:00, ,Agg. Prec. 1952,G. Montrone,549.52436624,{D71DF15E-6EAC-4ABD-BAC2-85729E0AC293},,547.895105963962,142703.686456037
"13144",Maslianico,9.04846523,45.8425639,"30261","30193","3",Collegamento sponde del fiume, , ,"0",,"0",0,"0","0","0",No,Nessuna informazione,0,0,0,"0","0",Nessuna,Nessuna,Non verificato, ,"7010025",Genova,1999/11/09 00:00:00, ,Agg. Prec. 1952,G. Montrone,47.17820306,{09799A88-40E5-40BC-AAAB-E64BDFF59D26},,47.0383769914515,157041.977640845
"13145",Menaggio,9.23891075,46.02110324,"34008","33952","3",Sponde del fiume, , ,"0",,"0",0,"0","0","0",No,Nessuna informazione,0,0,0,"0","0",Nessuna,Nessuna,Non verificato, ,"7010025",Genova,1999/11/09 00:00:00, ,Agg. Prec. 1952,G. Montrone,549.52436624,{D71DF15E-6EAC-4ABD-BAC2-85729E0AC293},,547.895105963962,178875.688033232
"13147",Merone,9.2451163,45.78638465,"34008","33952","3",Sponde del fiume, , ,"0",,"0",0,"0","0","0",No,Nessuna informazione,0,0,0,"0","0",Nessuna,Nessuna,Non verificato, ,"7010025",Genova,1999/11/09 00:00:00, ,Agg. Prec. 1952,G. Montrone,549.52436624,{D71DF15E-6EAC-4ABD-BAC2-85729E0AC293},,547.895105963962,153421.000347171
"13152",Moltrasio,9.09584337,45.85915189,"30261","30193","3",Collegamento sponde del fiume, , ,"0",,"0",0,"0","0","0",No,Nessuna informazione,0,0,0,"0","0",Nessuna,Nessuna,Non verificato, ,"7010025",Genova,1999/11/09 00:00:00, ,Agg. Prec. 1952,G. Montrone,47.17820306,{09799A88-40E5-40BC-AAAB-E64BDFF59D26},,47.0383769914515,159332.660641393
"13153",Monguzzo,9.23216904,45.7828265,"34008","33952","3",Sponde del fiume, , ,"0",,"0",0,"0","0","0",No,Nessuna informazione,0,0,0,"0","0",Nessuna,Nessuna,Non verificato, ,"7010025",Genova,1999/11/09 00:00:00, ,Agg. Prec. 1952,G. Montrone,549.52436624,{D71DF15E-6EAC-4ABD-BAC2-85729E0AC293},,547.895105963962,152818.866318616
"13154",Montano Lucino,9.0412798,45.78630139,"30261","30193","3",Collegamento sponde del fiume, , ,"0",,"0",0,"0","0","0",No,Nessuna informazione,0,0,0,"0","0",Nessuna,Nessuna,Non verificato, ,"7010025",Genova,1999/11/09 00:00:00, ,Agg. Prec. 1952,G. Montrone,47.17820306,{09799A88-40E5-40BC-AAAB-E64BDFF59D26},,47.0383769914515,150768.32121279
"13155",Montemezzo,9.3769807,46.17849115,"34008","33952","3",Sponde del fiume, , ,"0",,"0",0,"0","0","0",No,Nessuna informazione,0,0,0,"0","0",Nessuna,Nessuna,Non verificato, ,"7010025",Genova,1999/11/09 00:00:00, ,Agg. Prec. 1952,G. Montrone,549.52436624,{D71DF15E-6EAC-4ABD-BAC2-85729E0AC293},,547.895105963962,198166.400807074
"13157",Montorfano,9.14449546,45.78540322,"34008","33952","3",Sponde del fiume, , ,"0",,"0",0,"0","0","0",No,Nessuna informazione,0,0,0,"0","0",Nessuna,Nessuna,Non verificato, ,"7010025",Genova,1999/11/09 00:00:00, ,Agg. Prec. 1952,G. Montrone,549.52436624,{D71DF15E-6EAC-4ABD-BAC2-85729E0AC293},,547.895105963962,151808.466884724
"13159",Mozzate,8.95594336,45.67498965,"30261","30193","3",Collegamento sponde del fiume, , ,"0",,"0",0,"0","0","0",No,Nessuna informazione,0,0,0,"0","0",Nessuna,Nessuna,Non verificato, ,"7010025",Genova,1999/11/09 00:00:00, ,Agg. Prec. 1952,G. Montrone,47.17820306,{09799A88-40E5-40BC-AAAB-E64BDFF59D26},,47.0383769914515,137816.64495812
"13160",Musso,9.27367815,46.11081893,"34008","33952","3",Sponde del fiume, , ,"0",,"0",0,"0","0","0",No,Nessuna informazione,0,0,0,"0","0",Nessuna,Nessuna,Non verificato, ,"7010025",Genova,1999/11/09 00:00:00, ,Agg. Prec. 1952,G. Montrone,549.52436624,{D71DF15E-6EAC-4ABD-BAC2-85729E0AC293},,547.895105963962,189170.248745646
"13161",Nesso,9.15900161,45.91072746,"34008","33952","3",Sponde del fiume, , ,"0",,"0",0,"0","0","0",No,Nessuna informazione,0,0,0,"0","0",Nessuna,Nessuna,Non verificato, ,"7010025",Genova,1999/11/09 00:00:00, ,Agg. Prec. 1952,G. Montrone,549.52436624,{D71DF15E-6EAC-4ABD-BAC2-85729E0AC293},,547.895105963962,165729.254125164
"13163",Novedrate,9.12348667,45.69757654,"34008","33952","3",Sponde del fiume, , ,"0",,"0",0,"0","0","0",No,Nessuna informazione,0,0,0,"0","0",Nessuna,Nessuna,Non verificato, ,"7010025",Genova,1999/11/09 00:00:00, ,Agg. Prec. 1952,G. Montrone,549.52436624,{D71DF15E-6EAC-4ABD-BAC2-85729E0AC293},,547.895105963962,141914.849262789
"13165",Olgiate Comasco,8.96748481,45.78582872,"30261","30193","3",Collegamento sponde del fiume, , ,"0",,"0",0,"0","0","0",No,Nessuna informazione,0,0,0,"0","0",Nessuna,Nessuna,Non verificato, ,"7010025",Genova,1999/11/09 00:00:00, ,Agg. Prec. 1952,G. Montrone,47.17820306,{09799A88-40E5-40BC-AAAB-E64BDFF59D26},,47.0383769914515,150163.627285162
"13169",Oltrona di San Mamette,8.97597509,45.75805508,"30261","30193","3",Collegamento sponde del fiume, , ,"0",,"0",0,"0","0","0",No,Nessuna informazione,0,0,0,"0","0",Nessuna,Nessuna,Non verificato, ,"7010025",Genova,1999/11/09 00:00:00, ,Agg. Prec. 1952,G. Montrone,47.17820306,{09799A88-40E5-40BC-AAAB-E64BDFF59D26},,47.0383769914515,147140.62153509
"13170",Orsenigo,9.18506195,45.77829952,"34008","33952","3",Sponde del fiume, , ,"0",,"0",0,"0","0","0",No,Nessuna informazione,0,0,0,"0","0",Nessuna,Nessuna,Non verificato, ,"7010025",Genova,1999/11/09 00:00:00, ,Agg. Prec. 1952,G. Montrone,549.52436624,{D71DF15E-6EAC-4ABD-BAC2-85729E0AC293},,547.895105963962,151592.864188477
"13178",Peglio,9.29479046,46.16017984,"34008","33952","3",Sponde del fiume, , ,"0",,"0",0,"0","0","0",No,Nessuna informazione,0,0,0,"0","0",Nessuna,Nessuna,Non verificato, ,"7010025",Genova,1999/11/09 00:00:00, ,Agg. Prec. 1952,G. Montrone,549.52436624,{D71DF15E-6EAC-4ABD-BAC2-85729E0AC293},,547.895105963962,194864.734793354
"13183",Pianello del Lario,9.27647456,46.10038478,"34008","33952","3",Sponde del fiume, , ,"0",,"0",0,"0","0","0",No,Nessuna informazione,0,0,0,"0","0",Nessuna,Nessuna,Non verificato, ,"7010025",Genova,1999/11/09 00:00:00, ,Agg. Prec. 1952,G. Montrone,549.52436624,{D71DF15E-6EAC-4ABD-BAC2-85729E0AC293},,547.895105963962,188072.939706343
"13184",Pigra,9.12646377,45.95734691,"30261","30193","3",Collegamento sponde del fiume, , ,"0",,"0",0,"0","0","0",No,Nessuna informazione,0,0,0,"0","0",Nessuna,Nessuna,Non verificato, ,"7010025",Genova,1999/11/09 00:00:00, ,Agg. Prec. 1952,G. Montrone,47.17820306,{09799A88-40E5-40BC-AAAB-E64BDFF59D26},,47.0383769914515,170467.155326073
"13185",Plesio,9.22786354,46.04417749,"34008","33952","3",Sponde del fiume, , ,"0",,"0",0,"0","0","0",No,Nessuna informazione,0,0,0,"0","0",Nessuna,Nessuna,Non verificato, ,"7010025",Genova,1999/11/09 00:00:00, ,Agg. Prec. 1952,G. Montrone,549.52436624,{D71DF15E-6EAC-4ABD-BAC2-85729E0AC293},,547.895105963962,181243.349098322
"13186",Pognana Lario,9.15783719,45.87739682,"34008","33952","3",Sponde del fiume, , ,"0",,"0",0,"0","0","0",No,Nessuna informazione,0,0,0,"0","0",Nessuna,Nessuna,Non verificato, ,"7010025",Genova,1999/11/09 00:00:00, ,Agg. Prec. 1952,G. Montrone,549.52436624,{D71DF15E-6EAC-4ABD-BAC2-85729E0AC293},,547.895105963962,162060.121818328
"13187",Ponna,9.09401197,45.98963883,"30261","30193","3",Collegamento sponde del fiume, , ,"0",,"0",0,"0","0","0",No,Nessuna informazione,0,0,0,"0","0",Nessuna,Nessuna,Non verificato, ,"7010025",Genova,1999/11/09 00:00:00, ,Agg. Prec. 1952,G. Montrone,47.17820306,{09799A88-40E5-40BC-AAAB-E64BDFF59D26},,47.0383769914515,173688.059801807
"13188",Ponte Lambro,9.22491745,45.82699345,"34008","33952","3",Sponde del fiume, , ,"0",,"0",0,"0","0","0",No,Nessuna informazione,0,0,0,"0","0",Nessuna,Nessuna,Non verificato, ,"7010025",Genova,1999/11/09 00:00:00, ,Agg. Prec. 1952,G. Montrone,549.52436624,{D71DF15E-6EAC-4ABD-BAC2-85729E0AC293},,547.895105963962,157503.546821535
"13189",Porlezza,9.11981421,46.03641282,"30261","30193","3",Collegamento sponde del fiume, , ,"0",,"0",0,"0","0","0",No,Nessuna informazione,0,0,0,"0","0",Nessuna,Nessuna,Non verificato, ,"7010025",Genova,1999/11/09 00:00:00, ,Agg. Prec. 1952,G. Montrone,47.17820306,{09799A88-40E5-40BC-AAAB-E64BDFF59D26},,47.0383769914515,179098.439928786
"13192",Proserpio,9.24886541,45.82765082,"34008","33952","3",Sponde del fiume, , ,"0",,"0",0,"0","0","0",No,Nessuna informazione,0,0,0,"0","0",Nessuna,Nessuna,Non verificato, ,"7010025",Genova,1999/11/09 00:00:00, ,Agg. Prec. 1952,G. Montrone,549.52436624,{D71DF15E-6EAC-4ABD-BAC2-85729E0AC293},,547.895105963962,157960.950407353
"13193",Pusiano,9.28214374,45.8147783,"17124","17000","2",Opere Portuali, , ,"0",,"0",0,"0","0","0",No,Nessuna informazione,0,0,0,"0","0",IGM,Nessuna,Ottima, ,"7010025",Genova,1999/07/20 00:00:00, ,"1961",G. Montrone,20139.8695528,{365F8259-2FFD-4D62-B468-D6969CCC2C0B},,20082.0857384846,157125.521932249
"13195",Rezzago,9.2486021,45.8667268,"34008","33952","3",Sponde del fiume, , ,"0",,"0",0,"0","0","0",No,Nessuna informazione,0,0,0,"0","0",Nessuna,Nessuna,Non verificato, ,"7010025",Genova,1999/11/09 00:00:00, ,Agg. Prec. 1952,G. Montrone,549.52436624,{D71DF15E-6EAC-4ABD-BAC2-85729E0AC293},,547.895105963962,162201.019453944
"13197",Rodero,8.91338826,45.82263059,"30261","30193","3",Collegamento sponde del fiume, , ,"0",,"0",0,"0","0","0",No,Nessuna informazione,0,0,0,"0","0",Nessuna,Nessuna,Non verificato, ,"7010025",Genova,1999/11/09 00:00:00, ,Agg. Prec. 1952,G. Montrone,47.17820306,{09799A88-40E5-40BC-AAAB-E64BDFF59D26},,47.0383769914515,153984.297126511
"13199",Ronago,8.98249961,45.82976518,"30261","30193","3",Collegamento sponde del fiume, , ,"0",,"0",0,"0","0","0",No,Nessuna informazione,0,0,0,"0","0",Nessuna,Nessuna,Non verificato, ,"7010025",Genova,1999/11/09 00:00:00, ,Agg. Prec. 1952,G. Montrone,47.17820306,{09799A88-40E5-40BC-AAAB-E64BDFF59D26},,47.0383769914515,155122.469340578
"13201",Rovellasca,9.0522964,45.66794466,"30261","30193","3",Collegamento sponde del fiume, , ,"0",,"0",0,"0","0","0",No,Nessuna informazione,0,0,0,"0","0",Nessuna,Nessuna,Non verificato, ,"7010025",Genova,1999/11/09 00:00:00, ,Agg. Prec. 1952,G. Montrone,47.17820306,{09799A88-40E5-40BC-AAAB-E64BDFF59D26},,47.0383769914515,137826.530531466
"13202",Rovello Porro,9.03981948,45.65439932,"30261","30193","3",Collegamento sponde del fiume, , ,"0",,"0",0,"0","0","0",No,Nessuna informazione,0,0,0,"0","0",Nessuna,Nessuna,Non verificato, ,"7010025",Genova,1999/11/09 00:00:00, ,Agg. Prec. 1952,G. Montrone,47.17820306,{09799A88-40E5-40BC-AAAB-E64BDFF59D26},,47.0383769914515,136208.078482389
"13203",Sala Comacina,9.16599583,45.9642622,"34008","33952","3",Sponde del fiume, , ,"0",,"0",0,"0","0","0",No,Nessuna informazione,0,0,0,"0","0",Nessuna,Nessuna,Non verificato, ,"7010025",Genova,1999/11/09 00:00:00, ,Agg. Prec. 1952,G. Montrone,549.52436624,{D71DF15E-6EAC-4ABD-BAC2-85729E0AC293},,547.895105963962,171687.858003164
"13204",San Bartolomeo Val Cavargna,9.14622273,46.08250497,"30261","30193","3",Collegamento sponde del fiume, , ,"0",,"0",0,"0","0","0",No,Nessuna informazione,0,0,0,"0","0",Nessuna,Nessuna,Non verificato, ,"7010025",Genova,1999/11/09 00:00:00, ,Agg. Prec. 1952,G. Montrone,47.17820306,{09799A88-40E5-40BC-AAAB-E64BDFF59D26},,47.0383769914515,184449.920030305
"13205",San Fedele Intelvi,9.07651397,45.96921287,"30261","30193","3",Collegamento sponde del fiume, , ,"0",,"0",0,"0","0","0",No,Nessuna informazione,0,0,0,"0","0",Nessuna,Nessuna,Non verificato, ,"7010025",Genova,1999/11/09 00:00:00, ,Agg. Prec. 1952,G. Montrone,47.17820306,{09799A88-40E5-40BC-AAAB-E64BDFF59D26},,47.0383769914515,171270.908951278
"13206",San Fermo della Battaglia,9.0485,45.8096,"30261","30193","3",Collegamento sponde del fiume, , ,"0",,"0",0,"0","0","0",No,Nessuna informazione,0,0,0,"0","0",Nessuna,Nessuna,Non verificato, ,"7010025",Genova,1999/11/09 00:00:00, ,Agg. Prec. 1952,G. Montrone,47.17820306,{09799A88-40E5-40BC-AAAB-E64BDFF59D26},,47.0383769914515,153404.602830315
"13207",San Nazzaro Val Cavargna,9.13064701,46.08922511,"30261","30193","3",Collegamento sponde del fiume, , ,"0",,"0",0,"0","0","0",No,Nessuna informazione,0,0,0,"0","0",Nessuna,Nessuna,Non verificato, ,"7010025",Genova,1999/11/09 00:00:00, ,Agg. Prec. 1952,G. Montrone,47.17820306,{09799A88-40E5-40BC-AAAB-E64BDFF59D26},,47.0383769914515,185025.595100849
"13211",Schignano,9.10236459,45.92790729,"30261","30193","3",Collegamento sponde del fiume, , ,"0",,"0",0,"0","0","0",No,Nessuna informazione,0,0,0,"0","0",Nessuna,Nessuna,Non verificato, ,"7010025",Genova,1999/11/09 00:00:00, ,Agg. Prec. 1952,G. Montrone,47.17820306,{09799A88-40E5-40BC-AAAB-E64BDFF59D26},,47.0383769914515,166970.058121677
"13212",Senna Comasco,9.10732605,45.76332515,"30261","30193","3",Collegamento sponde del fiume, , ,"0",,"0",0,"0","0","0",No,Nessuna informazione,0,0,0,"0","0",Nessuna,Nessuna,Non verificato, ,"7010025",Genova,1999/11/09 00:00:00, ,Agg. Prec. 1952,G. Montrone,47.17820306,{09799A88-40E5-40BC-AAAB-E64BDFF59D26},,47.0383769914515,148926.3090389
"13215",Solbiate,8.93483499,45.79234044,"30261","30193","3",Collegamento sponde del fiume, , ,"0",,"0",0,"0","0","0",No,Nessuna informazione,0,0,0,"0","0",Nessuna,Nessuna,Non verificato, ,"7010025",Genova,1999/11/09 00:00:00, ,Agg. Prec. 1952,G. Montrone,47.17820306,{09799A88-40E5-40BC-AAAB-E64BDFF59D26},,47.0383769914515,150712.404962978
"13216",Sorico,9.37978706,46.17212137,"34008","33952","3",Sponde del fiume, , ,"0",,"0",0,"0","0","0",No,Nessuna informazione,0,0,0,"0","0",Nessuna,Nessuna,Non verificato, ,"7010025",Genova,1999/11/09 00:00:00, ,Agg. Prec. 1952,G. Montrone,549.52436624,{D71DF15E-6EAC-4ABD-BAC2-85729E0AC293},,547.895105963962,197524.538387147
"13217",Sormano,9.24707675,45.87943907,"34008","33952","3",Sponde del fiume, , ,"0",,"0",0,"0","0","0",No,Nessuna informazione,0,0,0,"0","0",Nessuna,Nessuna,Non verificato, ,"7010025",Genova,1999/11/09 00:00:00, ,Agg. Prec. 1952,G. Montrone,549.52436624,{D71DF15E-6EAC-4ABD-BAC2-85729E0AC293},,547.895105963962,163558.614494637
"13218",Stazzona,9.27725961,46.13898602,"34008","33952","3",Sponde del fiume, , ,"0",,"0",0,"0","0","0",No,Nessuna informazione,0,0,0,"0","0",Nessuna,Nessuna,Non verificato, ,"7010025",Genova,1999/11/09 00:00:00, ,Agg. Prec. 1952,G. Montrone,549.52436624,{D71DF15E-6EAC-4ABD-BAC2-85729E0AC293},,547.895105963962,192296.19948629
"13222",Tavernerio,9.15042839,45.79755247,"34008","33952","3",Sponde del fiume, , ,"0",,"0",0,"0","0","0",No,Nessuna informazione,0,0,0,"0","0",Nessuna,Nessuna,Non verificato, ,"7010025",Genova,1999/11/09 00:00:00, ,Agg. Prec. 1952,G. Montrone,549.52436624,{D71DF15E-6EAC-4ABD-BAC2-85729E0AC293},,547.895105963962,153216.548050105
"13223",Torno,9.11892139,45.85871468,"30261","30193","3",Collegamento sponde del fiume, , ,"0",,"0",0,"0","0","0",No,Nessuna informazione,0,0,0,"0","0",Nessuna,Nessuna,Non verificato, ,"7010025",Genova,1999/11/09 00:00:00, ,Agg. Prec. 1952,G. Montrone,47.17820306,{09799A88-40E5-40BC-AAAB-E64BDFF59D26},,47.0383769914515,159539.544335748
"13226",Trezzone,9.35533528,46.17146264,"34008","33952","3",Sponde del fiume, , ,"0",,"0",0,"0","0","0",No,Nessuna informazione,0,0,0,"0","0",Nessuna,Nessuna,Non verificato, ,"7010025",Genova,1999/11/09 00:00:00, ,Agg. Prec. 1952,G. Montrone,549.52436624,{D71DF15E-6EAC-4ABD-BAC2-85729E0AC293},,547.895105963962,197040.42504386
"13227",Turate,9.001214,45.65506841,"30261","30193","3",Collegamento sponde del fiume, , ,"0",,"0",0,"0","0","0",No,Nessuna informazione,0,0,0,"0","0",Nessuna,Nessuna,Non verificato, ,"7010025",Genova,1999/11/09 00:00:00, ,Agg. Prec. 1952,G. Montrone,47.17820306,{09799A88-40E5-40BC-AAAB-E64BDFF59D26},,47.0383769914515,135933.192821311
"13228",Uggiate-Trevano,8.96174753,45.82330253,"30261","30193","3",Collegamento sponde del fiume, , ,"0",,"0",0,"0","0","0",No,Nessuna informazione,0,0,0,"0","0",Nessuna,Nessuna,Non verificato, ,"7010025",Genova,1999/11/09 00:00:00, ,Agg. Prec. 1952,G. Montrone,47.17820306,{09799A88-40E5-40BC-AAAB-E64BDFF59D26},,47.0383769914515,154282.36035836
"13229",Valbrona,9.29677259,45.87778782,"34008","33952","3",Sponde del fiume, , ,"0",,"0",0,"0","0","0",No,Nessuna informazione,0,0,0,"0","0",Nessuna,Nessuna,Non verificato, ,"7010025",Genova,1999/11/09 00:00:00, ,Agg. Prec. 1952,G. Montrone,549.52436624,{D71DF15E-6EAC-4ABD-BAC2-85729E0AC293},,547.895105963962,164215.300016822
"13232",Valmorea,8.93063084,45.81328901,"30261","30193","3",Collegamento sponde del fiume, , ,"0",,"0",0,"0","0","0",No,Nessuna informazione,0,0,0,"0","0",Nessuna,Nessuna,Non verificato, ,"7010025",Genova,1999/11/09 00:00:00, ,Agg. Prec. 1952,G. Montrone,47.17820306,{09799A88-40E5-40BC-AAAB-E64BDFF59D26},,47.0383769914515,153017.048623899
"13233",Val Rezzo,9.11062175,46.07228986,"30261","30193","3",Collegamento sponde del fiume, , ,"0",,"0",0,"0","0","0",No,Nessuna informazione,0,0,0,"0","0",Nessuna,Nessuna,Non verificato, ,"7010025",Genova,1999/11/09 00:00:00, ,Agg. Prec. 1952,G. Montrone,47.17820306,{09799A88-40E5-40BC-AAAB-E64BDFF59D26},,47.0383769914515,182959.861525835
"13234",Valsolda,9.05613267,46.02446056,"30261","30193","3",Collegamento sponde del fiume, , ,"0",,"0",0,"0","0","0",No,Nessuna informazione,0,0,0,"0","0",Nessuna,Nessuna,Non verificato, ,"7010025",Genova,1999/11/09 00:00:00, ,Agg. Prec. 1952,G. Montrone,47.17820306,{09799A88-40E5-40BC-AAAB-E64BDFF59D26},,47.0383769914515,177194.979015081
"13236",Veleso,9.1808764,45.90874583,"34008","33952","3",Sponde del fiume, , ,"0",,"0",0,"0","0","0",No,Nessuna informazione,0,0,0,"0","0",Nessuna,Nessuna,Non verificato, ,"7010025",Genova,1999/11/09 00:00:00, ,Agg. Prec. 1952,G. Montrone,549.52436624,{D71DF15E-6EAC-4ABD-BAC2-85729E0AC293},,547.895105963962,165792.544802905
"13238",Veniano,8.98498564,45.71628916,"30261","30193","3",Collegamento sponde del fiume, , ,"0",,"0",0,"0","0","0",No,Nessuna informazione,0,0,0,"0","0",Nessuna,Nessuna,Non verificato, ,"7010025",Genova,1999/11/09 00:00:00, ,Agg. Prec. 1952,G. Montrone,47.17820306,{09799A88-40E5-40BC-AAAB-E64BDFF59D26},,47.0383769914515,142578.862592572
"13239",Vercana,9.33043302,46.160015,"34008","33952","3",Sponde del fiume, , ,"0",,"0",0,"0","0","0",No,Nessuna informazione,0,0,0,"0","0",Nessuna,Nessuna,Non verificato, ,"7010025",Genova,1999/11/09 00:00:00, ,Agg. Prec. 1952,G. Montrone,549.52436624,{D71DF15E-6EAC-4ABD-BAC2-85729E0AC293},,547.895105963962,195393.417345958
"13242",Vertemate con Minoprio,9.0721673,45.7251672,"30261","30193","3",Collegamento sponde del fiume, , ,"0",,"0",0,"0","0","0",No,Nessuna informazione,0,0,0,"0","0",Nessuna,Nessuna,Non verificato, ,"7010025",Genova,1999/11/09 00:00:00, ,Agg. Prec. 1952,G. Montrone,47.17820306,{09799A88-40E5-40BC-AAAB-E64BDFF59D26},,47.0383769914515,144334.882234054
"13245",Villa Guardia,9.02591509,45.77472871,"30261","30193","3",Collegamento sponde del fiume, , ,"0",,"0",0,"0","0","0",No,Nessuna informazione,0,0,0,"0","0",Nessuna,Nessuna,Non verificato, ,"7010025",Genova,1999/11/09 00:00:00, ,Agg. Prec. 1952,G. Montrone,47.17820306,{09799A88-40E5-40BC-AAAB-E64BDFF59D26},,47.0383769914515,149356.821556726
"13246",Zelbio,9.18089193,45.90503059,"34008","33952","3",Sponde del fiume, , ,"0",,"0",0,"0","0","0",No,Nessuna informazione,0,0,0,"0","0",Nessuna,Nessuna,Non verificato, ,"7010025",Genova,1999/11/09 00:00:00, ,Agg. Prec. 1952,G. Montrone,549.52436624,{D71DF15E-6EAC-4ABD-BAC2-85729E0AC293},,547.895105963962,165386.027721863
"13248",San Siro,9.25851049,46.0552164,"34008","33952","3",Sponde del fiume, , ,"0",,"0",0,"0","0","0",No,Nessuna informazione,0,0,0,"0","0",Nessuna,Nessuna,Non verificato, ,"7010025",Genova,1999/11/09 00:00:00, ,Agg. Prec. 1952,G. Montrone,549.52436624,{D71DF15E-6EAC-4ABD-BAC2-85729E0AC293},,547.895105963962,182881.997307256
"13249",Gravedona ed Uniti,9.30622961,46.1481075,"34008","33952","3",Sponde del fiume, , ,"0",,"0",0,"0","0","0",No,Nessuna informazione,0,0,0,"0","0",Nessuna,Nessuna,Non verificato, ,"7010025",Genova,1999/11/09 00:00:00, ,Agg. Prec. 1952,G. Montrone,549.52436624,{D71DF15E-6EAC-4ABD-BAC2-85729E0AC293},,547.895105963962,193720.830971857
"13250",Bellagio,9.2459,45.9627,"34008","33952","3",Sponde del fiume, , ,"0",,"0",0,"0","0","0",No,Nessuna informazione,0,0,0,"0","0",Nessuna,Nessuna,Non verificato, ,"7010025",Genova,1999/11/09 00:00:00, ,Agg. Prec. 1952,G. Montrone,549.52436624,{D71DF15E-6EAC-4ABD-BAC2-85729E0AC293},,547.895105963962,172605.530766315
"13251",Colverde,9.00494,45.8105,"30261","30193","3",Collegamento sponde del fiume, , ,"0",,"0",0,"0","0","0",No,Nessuna informazione,0,0,0,"0","0",Nessuna,Nessuna,Non verificato, ,"7010025",Genova,1999/11/09 00:00:00, ,Agg. Prec. 1952,G. Montrone,47.17820306,{09799A88-40E5-40BC-AAAB-E64BDFF59D26},,47.0383769914515,153144.780756067
"13252",Tremezzina,9.2135,45.98231,"34008","33952","3",Sponde del fiume, , ,"0",,"0",0,"0","0","0",No,Nessuna informazione,0,0,0,"0","0",Nessuna,Nessuna,Non verificato, ,"7010025",Genova,1999/11/09 00:00:00, ,Agg. Prec. 1952,G. Montrone,549.52436624,{D71DF15E-6EAC-4ABD-BAC2-85729E0AC293},,547.895105963962,174281.109202328
"13253",Alta Valle Intelvi,9.0271,45.9848,"30261","30193","3",Collegamento sponde del fiume, , ,"0",,"0",0,"0","0","0",No,Nessuna informazione,0,0,0,"0","0",Nessuna,Nessuna,Non verificato, ,"7010025",Genova,1999/11/09 00:00:00, ,Agg. Prec. 1952,G. Montrone,47.17820306,{09799A88-40E5-40BC-AAAB-E64BDFF59D26},,47.0383769914515,172586.125298622
"14001",Albaredo per San Marco,9.59043893,46.10292543,"17124","17000","2",Opere Portuali, , ,"0",,"0",0,"0","0","0",No,Nessuna informazione,0,0,0,"0","0",IGM,Nessuna,Ottima, ,"7010025",Genova,1999/07/20 00:00:00, ,"1961",G. Montrone,20139.8695528,{365F8259-2FFD-4D62-B468-D6969CCC2C0B},,20082.0857384846,193765.236404448
"14002",Albosaggia,9.85465398,46.147398,"3141","3131","1",Bassa, , ,"0",,"0",0,"0","0","0",No,Nessuna informazione,0,0,0,"0","0",Nessuna,Nessuna,Non verificato, ,"5027023",Laguna Veneta,1998/07/09 00:00:00, ,"1966",V. Angione,14619.5114758,{D1A0BE17-4E8D-4726-85AC-A0FE40412727},,14622.2312711315,198126.138587694
"14003",Andalo Valtellino,9.47301339,46.13447907,"17124","17000","2",Opere Portuali, , ,"0",,"0",0,"0","0","0",No,Nessuna informazione,0,0,0,"0","0",IGM,Nessuna,Ottima, ,"7010025",Genova,1999/07/20 00:00:00, ,"1961",G. Montrone,20139.8695528,{365F8259-2FFD-4D62-B468-D6969CCC2C0B},,20082.0857384846,194909.005375132
"14004",Aprica,10.15206343,46.15334799,"16387","16253","2","Altro (lidi, pontili, ecc.)", , ,"0",,"0",0,"0","0","0",No,Nessuna informazione,0,0,0,"0","0",Nessuna,Nessuna,Non verificato, ,"5027042",Laguna Veneta,1998/07/09 00:00:00, ,"1966",V. Angione,17711.9122158,{F8B01530-637B-49E4-BE84-B10B2A883BD9},,17715.8081843523,177735.772419981
"14005",Ardenno,9.65172236,46.17276047,"17124","17000","2",Opere Portuali, , ,"0",,"0",0,"0","0","0",No,Nessuna informazione,0,0,0,"0","0",IGM,Nessuna,Ottima, ,"7010025",Genova,1999/07/20 00:00:00, ,"1961",G. Montrone,20139.8695528,{365F8259-2FFD-4D62-B468-D6969CCC2C0B},,20082.0857384846,202537.865068087
"14006",Bema,9.56456455,46.10831825,"17124","17000","2",Opere Portuali, , ,"0",,"0",0,"0","0","0",No,Nessuna informazione,0,0,0,"0","0",IGM,Nessuna,Ottima, ,"7010025",Genova,1999/07/20 00:00:00, ,"1961",G. Montrone,20139.8695528,{365F8259-2FFD-4D62-B468-D6969CCC2C0B},,20082.0857384846,193807.343179903
