istat,comune,lng,lat,join_OBJECTID_1,join_objectid,join_tipo_costa,join_descrizion,join_litologia,join_nome,join_id_interve,join_anno_costr,join_annodismis,join_dim_opera,join_dim_opera_,join_spaz_opera,join_dist_riva,join_flag_modif,join_modifica_o,join_lung_modif,join_area_modif,join_variaz_med,join_variaz_max,join_id_sistema,join_incongruen,join_incertezza,join_acc_geomet,join_annotazion,join_cod_istat,join_nome_uf,join_dataacqort,join_oraacqorto,join_data_igm,join_resp_digit,join_shape_leng,join_globalid,join_SHAPE__Length,join_Shape_Length,distance
"90001",Aggius,9.06392097,40.92880745,"7269","7044","1",Bassa,Rocciosa, ,"0",,"0",0,"0","0","0",Si,Nessuna informazione,0,0,0,"0","0",Nessuna,Nessuna,Ottima, ,"20090074",Costa Paradiso,1998/07/31 00:00:00, ,"1958",R. Viola,729.76714183,{01EB6EB6-BC9E-498A-95A2-C99E8DDB6C89},,727.436500021946,15803.4023939817
"90002",Alà dei Sardi,9.32917825,40.65069405,"19672","19587","2",Opere Portuali, , ,"0",,"0",0,"0","0","0",No,Nessuna informazione,0,0,0,"0","0",Nessuna,Nessuna,Non verificato, ,"20090047",Olbia,1998/07/31 00:00:00, ,"1958",R. Viola,14157.0669917,{17B9E994-BBF2-4137-8249-D610FDF73259},,14120.1916576181,31488.0950718529
"90003",Alghero,8.32608134,40.54843552,"5822","5731","1",Bassa,Rocciosa, ,"0",,"0",0,"0","0","0",Si,Nessuna informazione,0,0,0,"0","0",Nessuna,Nessuna,Non verificato, ,"20090003",Alghero,1998/07/27 00:00:00, ,"1958",R. Viola,20.7904786,{F118AFE4-DC96-44CB-8822-D4D9A2105F2C},,20.7095896319688,0
"90004",Anela,9.05666422,40.44354491,"33438","33340","3",Sponde del fiume, , ,"0",,"0",0,"0","0","0",No,Nessuna informazione,0,0,0,"0","0",Nessuna,Nessuna,Non verificato, ,"20091013",Bosa,1998/05/12 00:00:00, ,"1958",R. Viola,412.42836781,{BDD2535F-3DAA-4322-B951-2BD128286995},,410.883561401166,50330.2108201526
"90005",Ardara,8.80926358,40.6238864,"34080","34033","3",Collegamento sponde del fiume, , ,"0",,"0",0,"0","0","0",No,Nessuna informazione,0,0,0,"0","0",Nessuna,Nessuna,Non verificato, ,"20090069",Platamona,1998/07/27 00:00:00, ,"1958",M. Laurieri,7.96596749,{27E9756B-80E2-43EE-86C7-854258B36D4C},,7.93740000583922,29208.0541948997
"90006",Arzachena,9.38847706,41.07937642,"35225","35200","3",Sponde del fiume, , ,"0",,"0",0,"0","0","0",No,Nessuna informazione,0,0,0,"0","0",Nessuna,Nessuna,Non verificato, ,"20090006",Arzachena,1998/07/31 00:00:00, ,"1958",R. Viola,1085.53014354,{80696285-64C5-4689-9CBA-87D28AE8709D},,1082.6427202668,3880.69048529678
"90007",Banari,8.69753059,40.57197633,"10245","10126","1",Bassa,Sabbiosa, ,"0",,"0",0,"0","0","0",Si,Erosione,988.37,16292.46,21.48,"48","0",Nessuna,Nessuna,Non verificato, ,"20090078",Punta Poglina,1998/07/27 00:00:00, ,"1958",R. Viola,960.21176502,{02F49266-E7C9-428A-BD08-819544F0DE27},,956.524286188637,27832.0093257504
"90008",Benetutti,9.16828273,40.45579466,"16936","16850","1",Bassa,Sabbiosa, ,"0",,"0",0,"0","0","0",Si,Stabilità,0,0,0,"0","0",Nessuna,Nessuna,Ottima, ,"20091017",Orosei,1998/05/12 00:00:00, ,"1959",R. Viola,857.57443699,{7C8DE7ED-C76B-49EE-9513-30A485A010E0},,855.408867976658,43123.6093327907
"90009",Berchidda,9.16400704,40.78635359,"19672","19587","2",Opere Portuali, , ,"0",,"0",0,"0","0","0",No,Nessuna informazione,0,0,0,"0","0",Nessuna,Nessuna,Non verificato, ,"20090047",Olbia,1998/07/31 00:00:00, ,"1958",R. Viola,14157.0669917,{17B9E994-BBF2-4137-8249-D610FDF73259},,14120.1916576181,30091.3064503022
"90010",Bessude,8.72722075,40.5556799,"10245","10126","1",Bassa,Sabbiosa, ,"0",,"0",0,"0","0","0",Si,Erosione,988.37,16292.46,21.48,"48","0",Nessuna,Nessuna,Non verificato, ,"20090078",Punta Poglina,1998/07/27 00:00:00, ,"1958",R. Viola,960.21176502,{02F49266-E7C9-428A-BD08-819544F0DE27},,956.524286188637,29760.0831820089
"90011",Bonnanaro,8.76638326,40.5324636,"2220","2131","1",Alta,Rocciosa, ,"0",,"0",0,"0","0","0",Si,Nessuna informazione,0,0,0,"0","0",Nessuna,Nessuna,Non verificato, ,"20090078",Punta Poglina,1998/05/12 00:00:00, ,"1958",R. Viola,1950.99392866,{FAC44924-D591-4A00-A956-DFDD6FD618CD},,1943.53267453051,32133.91732006
"90012",Bono,9.02975231,40.41690678,"33438","33340","3",Sponde del fiume, , ,"0",,"0",0,"0","0","0",No,Nessuna informazione,0,0,0,"0","0",Nessuna,Nessuna,Non verificato, ,"20091013",Bosa,1998/05/12 00:00:00, ,"1958",R. Viola,412.42836781,{BDD2535F-3DAA-4322-B951-2BD128286995},,410.883561401166,47268.1879394107
"90013",Bonorva,8.76853126,40.41698096,"34085","34038","3",Collegamento sponde del fiume, , ,"0",,"0",0,"0","0","0",No,Nessuna informazione,0,0,0,"0","0",Nessuna,Nessuna,Non verificato, ,"20091013",Bosa,1998/05/12 00:00:00, ,"1958",R. Viola,117.33120222,{47622717-4BD6-4AA6-989B-A0B180D9AB21},,116.89199152444,26696.5867814151
"90014",Bortigiadas,9.04327192,40.89144536,"15834","15700","1",Bassa,Sabbiosa, ,"0",,"0",0,"0","0","0",Si,Stabilità,0,0,0,"0","0",Nessuna,Nessuna,Non verificato, ,"20090081",Castelsardo,1998/07/31 00:00:00, ,"1958",R. Viola,1241.35546567,{1C2E158C-E1C2-426B-9480-B3398822BBDA},,1237.29156756609,17303.6294831545
"90015",Borutta,8.7437418,40.52227636,"2220","2131","1",Alta,Rocciosa, ,"0",,"0",0,"0","0","0",Si,Nessuna informazione,0,0,0,"0","0",Nessuna,Nessuna,Non verificato, ,"20090078",Punta Poglina,1998/05/12 00:00:00, ,"1958",R. Viola,1950.99392866,{FAC44924-D591-4A00-A956-DFDD6FD618CD},,1943.53267453051,29962.2068398963
"90016",Bottidda,9.0069729,40.39066943,"34085","34038","3",Collegamento sponde del fiume, , ,"0",,"0",0,"0","0","0",No,Nessuna informazione,0,0,0,"0","0",Nessuna,Nessuna,Non verificato, ,"20091013",Bosa,1998/05/12 00:00:00, ,"1958",R. Viola,117.33120222,{47622717-4BD6-4AA6-989B-A0B180D9AB21},,116.89199152444,44656.8294982022
"90017",Buddusò,9.26086355,40.57857057,"34194","34078","3",Collegamento sponde del fiume, , ,"0",,"0",0,"0","0","0",No,Nessuna informazione,0,0,0,"0","0",Nessuna,Nessuna,Non verificato, ,"20091073",Siniscola,1998/05/19 00:00:00, ,"1958",R. Viola,35.26626959,{96B11E21-C13B-43E3-9067-27EFAC3E868D},,35.1818444799626,39664.2967842578
"90018",Bultei,9.06148663,40.45707527,"33438","33340","3",Sponde del fiume, , ,"0",,"0",0,"0","0","0",No,Nessuna informazione,0,0,0,"0","0",Nessuna,Nessuna,Non verificato, ,"20091013",Bosa,1998/05/12 00:00:00, ,"1958",R. Viola,412.42836781,{BDD2535F-3DAA-4322-B951-2BD128286995},,410.883561401166,51213.4646263362
"90019",Bulzi,8.82973366,40.84804202,"16923","16837","1",Bassa,Sabbiosa, ,"0",,"0",0,"0","0","0",Si,Stabilità,0,0,0,"0","0",Nessuna,Nessuna,Ottima, ,"20090079",Castelsardo,1998/07/31 00:00:00, ,"1958",R. Viola,843.64708894,{082E559D-9B2D-4A71-BEE9-DADCB374A3EF},,840.81236808038,7827.24306296345
"90020",Burgos,8.99368536,40.39061632,"34085","34038","3",Collegamento sponde del fiume, , ,"0",,"0",0,"0","0","0",No,Nessuna informazione,0,0,0,"0","0",Nessuna,Nessuna,Non verificato, ,"20091013",Bosa,1998/05/12 00:00:00, ,"1958",R. Viola,117.33120222,{47622717-4BD6-4AA6-989B-A0B180D9AB21},,116.89199152444,43558.9189561981
"90021",Calangianus,9.19233471,40.92314505,"9514","9496","1",Bassa,Sabbiosa, ,"0",,"0",0,"0","0","0",Si,Erosione,353.76,5549.27,20.69,"36","0",Nessuna,Nessuna,Ottima, ,"20090062",Vignola,1998/07/31 00:00:00, ,"1958",R. Viola,316.00519571,{13602E5F-D0E7-4769-B32C-BA41CB246B3D},,315.048445391472,23412.5426532201
"90022",Cargeghe,8.61606937,40.66755094,"34081","34034","3",Collegamento sponde del fiume, , ,"0",,"0",0,"0","0","0",No,Nessuna informazione,0,0,0,"0","0",Nessuna,Nessuna,Non verificato, ,"20090069",Platamona,1998/07/27 00:00:00, ,"1958",R. Viola,24.60328719,{24B92642-5A1A-4603-84BB-477F58D058CB},,24.5143867554277,17362.3843566452
"90024",Cheremule,8.72514048,40.50610251,"2220","2131","1",Alta,Rocciosa, ,"0",,"0",0,"0","0","0",Si,Nessuna informazione,0,0,0,"0","0",Nessuna,Nessuna,Non verificato, ,"20090078",Punta Poglina,1998/05/12 00:00:00, ,"1958",R. Viola,1950.99392866,{FAC44924-D591-4A00-A956-DFDD6FD618CD},,1943.53267453051,27949.7700458385
"90025",Chiaramonti,8.82000085,40.75181945,"1966","1867","1",Alta,Rocciosa, ,"0",,"0",0,"0","0","0",Si,Nessuna informazione,0,0,0,"0","0",Nessuna,Nessuna,Non verificato, ,"20090023",Castelsardo,1998/07/31 00:00:00, ,"1958",R. Viola,2635.649692,{3A0124AA-DFD1-4F6A-870F-D63CFB2AA590},,2626.72373153413,17713.210229551
"90026",Codrongianos,8.68009951,40.65809986,"34080","34033","3",Collegamento sponde del fiume, , ,"0",,"0",0,"0","0","0",No,Nessuna informazione,0,0,0,"0","0",Nessuna,Nessuna,Non verificato, ,"20090069",Platamona,1998/07/27 00:00:00, ,"1958",M. Laurieri,7.96596749,{27E9756B-80E2-43EE-86C7-854258B36D4C},,7.93740000583922,20268.1258300334
"90027",Cossoine,8.71259249,40.43143046,"33438","33340","3",Sponde del fiume, , ,"0",,"0",0,"0","0","0",No,Nessuna informazione,0,0,0,"0","0",Nessuna,Nessuna,Non verificato, ,"20091013",Bosa,1998/05/12 00:00:00, ,"1958",R. Viola,412.42836781,{BDD2535F-3DAA-4322-B951-2BD128286995},,410.883561401166,23624.9512129962
"90028",Esporlatu,8.99065916,40.38598158,"34085","34038","3",Collegamento sponde del fiume, , ,"0",,"0",0,"0","0","0",No,Nessuna informazione,0,0,0,"0","0",Nessuna,Nessuna,Non verificato, ,"20091013",Bosa,1998/05/12 00:00:00, ,"1958",R. Viola,117.33120222,{47622717-4BD6-4AA6-989B-A0B180D9AB21},,116.89199152444,43189.9101882902
"90029",Florinas,8.665701,40.64793049,"34080","34033","3",Collegamento sponde del fiume, , ,"0",,"0",0,"0","0","0",No,Nessuna informazione,0,0,0,"0","0",Nessuna,Nessuna,Non verificato, ,"20090069",Platamona,1998/07/27 00:00:00, ,"1958",M. Laurieri,7.96596749,{27E9756B-80E2-43EE-86C7-854258B36D4C},,7.93740000583922,20898.342660254
"90030",Giave,8.7505426,40.45201666,"33438","33340","3",Sponde del fiume, , ,"0",,"0",0,"0","0","0",No,Nessuna informazione,0,0,0,"0","0",Nessuna,Nessuna,Non verificato, ,"20091013",Bosa,1998/05/12 00:00:00, ,"1958",R. Viola,412.42836781,{BDD2535F-3DAA-4322-B951-2BD128286995},,410.883561401166,27568.3534368543
"90031",Illorai,9.0021059,40.35444054,"34085","34038","3",Collegamento sponde del fiume, , ,"0",,"0",0,"0","0","0",No,Nessuna informazione,0,0,0,"0","0",Nessuna,Nessuna,Non verificato, ,"20091013",Bosa,1998/05/12 00:00:00, ,"1958",R. Viola,117.33120222,{47622717-4BD6-4AA6-989B-A0B180D9AB21},,116.89199152444,43494.8728178905
"90032",Ittireddu,8.90205956,40.54399048,"34080","34033","3",Collegamento sponde del fiume, , ,"0",,"0",0,"0","0","0",No,Nessuna informazione,0,0,0,"0","0",Nessuna,Nessuna,Non verificato, ,"20090069",Platamona,1998/07/27 00:00:00, ,"1958",M. Laurieri,7.96596749,{27E9756B-80E2-43EE-86C7-854258B36D4C},,7.93740000583922,41046.2765638226
"90033",Ittiri,8.56880739,40.59413859,"10245","10126","1",Bassa,Sabbiosa, ,"0",,"0",0,"0","0","0",Si,Erosione,988.37,16292.46,21.48,"48","0",Nessuna,Nessuna,Non verificato, ,"20090078",Punta Poglina,1998/07/27 00:00:00, ,"1958",R. Viola,960.21176502,{02F49266-E7C9-428A-BD08-819544F0DE27},,956.524286188637,19081.121080493
"90034",Laerru,8.83597569,40.81824972,"16923","16837","1",Bassa,Sabbiosa, ,"0",,"0",0,"0","0","0",Si,Stabilità,0,0,0,"0","0",Nessuna,Nessuna,Ottima, ,"20090079",Castelsardo,1998/07/31 00:00:00, ,"1958",R. Viola,843.64708894,{082E559D-9B2D-4A71-BEE9-DADCB374A3EF},,840.81236808038,11056.3868846531
"90035",La Maddalena,9.4066075,41.21292425,"829","691","1",Alta,Rocciosa, ,"0",,"0",0,"0","0","0",Si,Nessuna informazione,0,0,0,"0","0",Nessuna,Nessuna,Non verificato, ,"20090035",Isola,1998/07/31 00:00:00, ,"1958",R. Viola,1409.20923742,{9B34CBE2-895C-4D6B-9357-359EECFB7E61},,1405.43229345775,0
"90036",Luogosanto,9.20552532,41.0506433,"15762","15628","1",Bassa,Sabbiosa, ,"0",,"0",0,"0","0","0",Si,Stabilità,0,0,0,"0","0",Nessuna,Nessuna,Non verificato, ,"20090062",Vignola,1998/07/31 00:00:00, ,"1958",R. Viola,1896.75293301,{EDE85B1C-4DB0-4DD8-BE26-396B2453FDB7},,1891.0585473125,11306.3973223273
"90037",Luras,9.1750081,40.93619412,"9514","9496","1",Bassa,Sabbiosa, ,"0",,"0",0,"0","0","0",Si,Erosione,353.76,5549.27,20.69,"36","0",Nessuna,Nessuna,Ottima, ,"20090062",Vignola,1998/07/31 00:00:00, ,"1958",R. Viola,316.00519571,{13602E5F-D0E7-4769-B32C-BA41CB246B3D},,315.048445391472,21550.4786536818
"90038",Mara,8.63690581,40.41070077,"1942","1843","1",Alta,Rocciosa, ,"0",,"0",0,"0","0","0",Si,Nessuna informazione,0,0,0,"0","0",Nessuna,Nessuna,Ottima, ,"20091013",Bosa,1998/05/12 00:00:00, ,"1958",R. Viola,644.95382188,{0348E6DF-1C66-4D06-B018-641629FB237A},,642.526725006686,17091.7725883577
"90039",Martis,8.80866255,40.7788928,"1966","1867","1",Alta,Rocciosa, ,"0",,"0",0,"0","0","0",Si,Nessuna informazione,0,0,0,"0","0",Nessuna,Nessuna,Non verificato, ,"20090023",Castelsardo,1998/07/31 00:00:00, ,"1958",R. Viola,2635.649692,{3A0124AA-DFD1-4F6A-870F-D63CFB2AA590},,2626.72373153413,14570.5178709063
"90040",Monteleone Rocca Doria,8.55993756,40.47187701,"2220","2131","1",Alta,Rocciosa, ,"0",,"0",0,"0","0","0",Si,Nessuna informazione,0,0,0,"0","0",Nessuna,Nessuna,Non verificato, ,"20090078",Punta Poglina,1998/05/12 00:00:00, ,"1958",R. Viola,1950.99392866,{FAC44924-D591-4A00-A956-DFDD6FD618CD},,1943.53267453051,13443.1620073001
"90041",Monti,9.32588332,40.80514851,"19672","19587","2",Opere Portuali, , ,"0",,"0",0,"0","0","0",No,Nessuna informazione,0,0,0,"0","0",Nessuna,Nessuna,Non verificato, ,"20090047",Olbia,1998/07/31 00:00:00, ,"1958",R. Viola,14157.0669917,{17B9E994-BBF2-4137-8249-D610FDF73259},,14120.1916576181,17583.5004046715
"90042",Mores,8.833674,40.54944198,"34246","35128","3",Sponde del fiume, , ,"0",,"0",0,"0","0","0",No,Nessuna informazione,0,0,0,"0","0",Nessuna,Nessuna,Non verificato, ,"20090069",Platamona,1998/07/27 00:00:00, ,"1958",M. Laurieri,506.93823158,{2EA8B02E-750D-4C40-9AD0-AC4FA80ABC3C},,505.122775923535,37098.0546834108
"90043",Muros,8.61529031,40.67910589,"34081","34034","3",Collegamento sponde del fiume, , ,"0",,"0",0,"0","0","0",No,Nessuna informazione,0,0,0,"0","0",Nessuna,Nessuna,Non verificato, ,"20090069",Platamona,1998/07/27 00:00:00, ,"1958",R. Viola,24.60328719,{24B92642-5A1A-4603-84BB-477F58D058CB},,24.5143867554277,16126.9878150044
"90044",Nughedu San Nicolò,9.02206431,40.55626911,"16923","16837","1",Bassa,Sabbiosa, ,"0",,"0",0,"0","0","0",Si,Stabilità,0,0,0,"0","0",Nessuna,Nessuna,Ottima, ,"20090079",Castelsardo,1998/07/31 00:00:00, ,"1958",R. Viola,843.64708894,{082E559D-9B2D-4A71-BEE9-DADCB374A3EF},,840.81236808038,44061.7411792376
"90045",Nule,9.1872891,40.46090607,"16936","16850","1",Bassa,Sabbiosa, ,"0",,"0",0,"0","0","0",Si,Stabilità,0,0,0,"0","0",Nessuna,Nessuna,Ottima, ,"20091017",Orosei,1998/05/12 00:00:00, ,"1959",R. Viola,857.57443699,{7C8DE7ED-C76B-49EE-9513-30A485A010E0},,855.408867976658,41953.833134573
"90046",Nulvi,8.74457384,40.7805803,"15667","15500","1",Bassa,Sabbiosa, ,"0",,"0",0,"0","0","0",Si,Stabilità,0,0,0,"0","0",Nessuna,Nessuna,Non verificato, ,"20090069",Platamona,1998/07/31 00:00:00, ,"1958",R. Viola,2171.81813146,{3171852A-0BC8-4EA1-BF8D-E3F6AF752082},,2164.13345867719,12687.8235994182
"90048",Olmedo,8.38262067,40.65003781,"35222","35197","3",Sponde del fiume, , ,"0",,"0",0,"0","0","0",No,Nessuna informazione,0,0,0,"0","0",Nessuna,Nessuna,Non verificato, ,"20090003",Alghero,1998/07/27 00:00:00, ,"1958",R. Viola,2915.71680193,{E31BB68B-A345-4A3C-AE26-496A9A3EB053},,2904.36042890953,7018.54483610661
"90049",Oschiri,9.09838673,40.7194813,"14977","14816","1",Bassa,Sabbiosa, ,"0",,"0",0,"0","0","0",Si,Stabilità,0,0,0,"0","0",Nessuna,Nessuna,Non verificato, ,"20090081",Castelsardo,1998/07/31 00:00:00, ,"1958",R. Viola,6963.54059934,{68DE2DB0-5A06-4C2A-9EB8-4B6DD7AAF17F},,6940.49662012875,33125.3603140607
"90050",Osilo,8.67132565,40.74402374,"34080","34033","3",Collegamento sponde del fiume, , ,"0",,"0",0,"0","0","0",No,Nessuna informazione,0,0,0,"0","0",Nessuna,Nessuna,Non verificato, ,"20090069",Platamona,1998/07/27 00:00:00, ,"1958",M. Laurieri,7.96596749,{27E9756B-80E2-43EE-86C7-854258B36D4C},,7.93740000583922,11523.4290745823
"90051",Ossi,8.59067388,40.6763426,"34249","35131","3",Sponde del fiume, , ,"0",,"0",0,"0","0","0",No,Nessuna informazione,0,0,0,"0","0",Nessuna,Nessuna,Non verificato, ,"20090069",Platamona,1998/07/27 00:00:00, ,"1958",R. Viola,452.54356342,{DDA80B97-3836-4936-B3C6-B51ED004A19F},,450.905588974674,15856.2297390376
"90052",Ozieri,8.99838131,40.58497586,"16923","16837","1",Bassa,Sabbiosa, ,"0",,"0",0,"0","0","0",Si,Stabilità,0,0,0,"0","0",Nessuna,Nessuna,Ottima, ,"20090079",Castelsardo,1998/07/31 00:00:00, ,"1958",R. Viola,843.64708894,{082E559D-9B2D-4A71-BEE9-DADCB374A3EF},,840.81236808038,40315.8861496422
"90053",Padria,8.63044015,40.39800657,"1942","1843","1",Alta,Rocciosa, ,"0",,"0",0,"0","0","0",Si,Nessuna informazione,0,0,0,"0","0",Nessuna,Nessuna,Ottima, ,"20091013",Bosa,1998/05/12 00:00:00, ,"1958",R. Viola,644.95382188,{0348E6DF-1C66-4D06-B018-641629FB237A},,642.526725006686,15842.270054553
"90054",Palau,9.38302871,41.17768674,"2121","2032","1",Alta,Rocciosa, ,"0",,"0",0,"0","0","0",Si,Nessuna informazione,0,0,0,"0","0",Nessuna,Nessuna,Non verificato, ,"20090054",Palau,1998/07/31 00:00:00, ,"1958",V. Proto,618.71454242,{0E080C5B-29F8-4DB4-88A0-8D01B55B8F00},,617.041556562979,0
"90055",Pattada,9.11210268,40.58281193,"6509","6474","1",Bassa,Rocciosa, ,"0",,"0",0,"0","0","0",Si,Nessuna informazione,0,0,0,"0","0",Nessuna,Nessuna,Non verificato, ,"20090079",Castelsardo,1998/07/31 00:00:00, ,"1958",R. Viola,194.75692699,{25FFF3E4-6718-4645-A620-77AF3CF17D94},,194.103890033764,45442.8552030471
"90056",Perfugas,8.88347308,40.83024155,"6509","6474","1",Bassa,Rocciosa, ,"0",,"0",0,"0","0","0",Si,Nessuna informazione,0,0,0,"0","0",Nessuna,Nessuna,Non verificato, ,"20090079",Castelsardo,1998/07/31 00:00:00, ,"1958",R. Viola,194.75692699,{25FFF3E4-6718-4645-A620-77AF3CF17D94},,194.103890033764,11872.8664629115
"90057",Ploaghe,8.74930405,40.66573266,"34080","34033","3",Collegamento sponde del fiume, , ,"0",,"0",0,"0","0","0",No,Nessuna informazione,0,0,0,"0","0",Nessuna,Nessuna,Non verificato, ,"20090069",Platamona,1998/07/27 00:00:00, ,"1958",M. Laurieri,7.96596749,{27E9756B-80E2-43EE-86C7-854258B36D4C},,7.93740000583922,22427.5760378352
"90058",Porto Torres,8.40122823,40.83722955,"150","158","1",Alta,Rocciosa, ,"0",,"0",0,"0","0","0",Si,Nessuna informazione,0,0,0,"0","0",Nessuna,Nessuna,Non verificato, ,"20090058",Platamona,1998/07/27 00:00:00, ,"1958",R. Viola,2027.22807316,{CFFCC1C9-2BBE-4F79-8536-4A98B887F074},,2019.61435683048,0
"90059",Pozzomaggiore,8.65657616,40.39932098,"33438","33340","3",Sponde del fiume, , ,"0",,"0",0,"0","0","0",No,Nessuna informazione,0,0,0,"0","0",Nessuna,Nessuna,Non verificato, ,"20091013",Bosa,1998/05/12 00:00:00, ,"1958",R. Viola,412.42836781,{BDD2535F-3DAA-4322-B951-2BD128286995},,410.883561401166,17686.3282517025
"90060",Putifigari,8.46065767,40.56251422,"10245","10126","1",Bassa,Sabbiosa, ,"0",,"0",0,"0","0","0",Si,Erosione,988.37,16292.46,21.48,"48","0",Nessuna,Nessuna,Non verificato, ,"20090078",Punta Poglina,1998/07/27 00:00:00, ,"1958",R. Viola,960.21176502,{02F49266-E7C9-428A-BD08-819544F0DE27},,956.524286188637,9697.65936250166
"90061",Romana,8.58655605,40.48434729,"2220","2131","1",Alta,Rocciosa, ,"0",,"0",0,"0","0","0",Si,Nessuna informazione,0,0,0,"0","0",Nessuna,Nessuna,Non verificato, ,"20090078",Punta Poglina,1998/05/12 00:00:00, ,"1958",R. Viola,1950.99392866,{FAC44924-D591-4A00-A956-DFDD6FD618CD},,1943.53267453051,15994.2266409828
"90062",Aglientu,9.11300677,41.08161989,"9514","9496","1",Bassa,Sabbiosa, ,"0",,"0",0,"0","0","0",Si,Erosione,353.76,5549.27,20.69,"36","0",Nessuna,Nessuna,Ottima, ,"20090062",Vignola,1998/07/31 00:00:00, ,"1958",R. Viola,316.00519571,{13602E5F-D0E7-4769-B32C-BA41CB246B3D},,315.048445391472,4600.94792962325
"90063",Santa Teresa Gallura,9.18836077,41.23983449,"2283","2203","1",Alta,Rocciosa, ,"0",,"0",0,"0","0","0",Si,Nessuna informazione,0,0,0,"0","0",Nessuna,Nessuna,Non verificato, ,"20090063",S. Teresa di Gallura,1998/07/31 00:00:00, ,"1958",R. Viola,4562.88414541,{433D2134-3AEE-4325-9A8C-791499B283D8},,4549.54055600775,0
"90064",Sassari,8.55966713,40.72667657,"34081","34034","3",Collegamento sponde del fiume, , ,"0",,"0",0,"0","0","0",No,Nessuna informazione,0,0,0,"0","0",Nessuna,Nessuna,Non verificato, ,"20090069",Platamona,1998/07/27 00:00:00, ,"1958",R. Viola,24.60328719,{24B92642-5A1A-4603-84BB-477F58D058CB},,24.5143867554277,9932.98388560872
"90065",Sedini,8.8171572,40.85017734,"16923","16837","1",Bassa,Sabbiosa, ,"0",,"0",0,"0","0","0",Si,Stabilità,0,0,0,"0","0",Nessuna,Nessuna,Ottima, ,"20090079",Castelsardo,1998/07/31 00:00:00, ,"1958",R. Viola,843.64708894,{082E559D-9B2D-4A71-BEE9-DADCB374A3EF},,840.81236808038,7177.35922766478
"90066",Semestene,8.72611797,40.39816646,"34085","34038","3",Collegamento sponde del fiume, , ,"0",,"0",0,"0","0","0",No,Nessuna informazione,0,0,0,"0","0",Nessuna,Nessuna,Non verificato, ,"20091013",Bosa,1998/05/12 00:00:00, ,"1958",R. Viola,117.33120222,{47622717-4BD6-4AA6-989B-A0B180D9AB21},,116.89199152444,22536.3732203515
"90067",Sennori,8.59526497,40.7881437,"34246","35128","3",Sponde del fiume, , ,"0",,"0",0,"0","0","0",No,Nessuna informazione,0,0,0,"0","0",Nessuna,Nessuna,Non verificato, ,"20090069",Platamona,1998/07/27 00:00:00, ,"1958",M. Laurieri,506.93823158,{2EA8B02E-750D-4C40-9AD0-AC4FA80ABC3C},,505.122775923535,4305.67794387515
"90068",Siligo,8.72556673,40.57724022,"34080","34033","3",Collegamento sponde del fiume, , ,"0",,"0",0,"0","0","0",No,Nessuna informazione,0,0,0,"0","0",Nessuna,Nessuna,Non verificato, ,"20090069",Platamona,1998/07/27 00:00:00, ,"1958",M. Laurieri,7.96596749,{27E9756B-80E2-43EE-86C7-854258B36D4C},,7.93740000583922,30032.7548008059
"90069",Sorso,8.57785537,40.79697664,"34081","34034","3",Collegamento sponde del fiume, , ,"0",,"0",0,"0","0","0",No,Nessuna informazione,0,0,0,"0","0",Nessuna,Nessuna,Non verificato, ,"20090069",Platamona,1998/07/27 00:00:00, ,"1958",R. Viola,24.60328719,{24B92642-5A1A-4603-84BB-477F58D058CB},,24.5143867554277,2967.35883121836
"90070",Tempio Pausania,9.10323451,40.90320323,"7269","7044","1",Bassa,Rocciosa, ,"0",,"0",0,"0","0","0",Si,Nessuna informazione,0,0,0,"0","0",Nessuna,Nessuna,Ottima, ,"20090074",Costa Paradiso,1998/07/31 00:00:00, ,"1958",R. Viola,729.76714183,{01EB6EB6-BC9E-498A-95A2-C99E8DDB6C89},,727.436500021946,20133.1695050297
"90071",Thiesi,8.72058008,40.52201526,"2220","2131","1",Alta,Rocciosa, ,"0",,"0",0,"0","0","0",Si,Nessuna informazione,0,0,0,"0","0",Nessuna,Nessuna,Non verificato, ,"20090078",Punta Poglina,1998/05/12 00:00:00, ,"1958",R. Viola,1950.99392866,{FAC44924-D591-4A00-A956-DFDD6FD618CD},,1943.53267453051,28086.5567737834
"90072",Tissi,8.56237292,40.67874659,"34081","34034","3",Collegamento sponde del fiume, , ,"0",,"0",0,"0","0","0",No,Nessuna informazione,0,0,0,"0","0",Nessuna,Nessuna,Non verificato, ,"20090069",Platamona,1998/07/27 00:00:00, ,"1958",R. Viola,24.60328719,{24B92642-5A1A-4603-84BB-477F58D058CB},,24.5143867554277,15252.9595459314
"90073",Torralba,8.76198049,40.51425133,"2220","2131","1",Alta,Rocciosa, ,"0",,"0",0,"0","0","0",Si,Nessuna informazione,0,0,0,"0","0",Nessuna,Nessuna,Non verificato, ,"20090078",Punta Poglina,1998/05/12 00:00:00, ,"1958",R. Viola,1950.99392866,{FAC44924-D591-4A00-A956-DFDD6FD618CD},,1943.53267453051,31198.5420429944
"90074",Trinità d'Agultu e Vignola,8.91371219,40.98563737,"15668","15501","1",Bassa,Sabbiosa, ,"0",,"0",0,"0","0","0",Si,Stabilità,0,0,0,"0","0",Nessuna,Nessuna,Non verificato, ,"20090074",Castelsardo,1998/07/31 00:00:00, ,"1958",R. Viola,1275.08788029,{63B5E556-6F15-4C1D-A5D6-25D7F8423C5A},,1270.92536300474,2570.71622173414
"90075",Tula,8.98668427,40.73372886,"8914","9184","1",Bassa,Sabbiosa, ,"0",,"0",0,"0","0","0",Si,Erosione,650.78,9814.77,20.08,"36","0",Nessuna,Nessuna,Non verificato, ,"20090079",Castelsardo,1998/07/31 00:00:00, ,"1958",R. Viola,643.41755833,{4B763EC3-2D40-44DB-9F5D-FE821E1E3860},,641.26183824542,25674.3701748039
"90076",Uri,8.48650236,40.63791739,"35222","35197","3",Sponde del fiume, , ,"0",,"0",0,"0","0","0",No,Nessuna informazione,0,0,0,"0","0",Nessuna,Nessuna,Non verificato, ,"20090003",Alghero,1998/07/27 00:00:00, ,"1958",R. Viola,2915.71680193,{E31BB68B-A345-4A3C-AE26-496A9A3EB053},,2904.36042890953,14332.3371049832
"90077",Usini,8.54056713,40.66371528,"15663","15496","1",Bassa,Sabbiosa, ,"0",,"0",0,"0","0","0",Si,Stabilità,0,0,0,"0","0",Nessuna,Nessuna,Non verificato, ,"20090069",Platamona,1998/07/27 00:00:00, ,"1958",R. Viola,6765.91546369,{0C60C124-B6B2-4667-B14F-562A85816F07},,6741.14130194121,16771.3313990134
"90078",Villanova Monteleone,8.47038149,40.5035733,"6508","6473","1",Bassa,Rocciosa, ,"0",,"0",0,"0","0","0",Si,Nessuna informazione,0,0,0,"0","0",Nessuna,Nessuna,Non verificato, ,"20090078",Punta Poglina,1998/07/27 00:00:00, ,"1958",R. Viola,2134.81597383,{39D90A6A-AFDD-4208-BB9C-821607668AFD},,2126.62600909648,7261.48172596618
"90079",Valledoria,8.82245483,40.92775535,"14977","14816","1",Bassa,Sabbiosa, ,"0",,"0",0,"0","0","0",Si,Stabilità,0,0,0,"0","0",Nessuna,Nessuna,Non verificato, ,"20090081",Castelsardo,1998/07/31 00:00:00, ,"1958",R. Viola,6963.54059934,{68DE2DB0-5A06-4C2A-9EB8-4B6DD7AAF17F},,6940.49662012875,344.758412707613
"90080",Telti,9.35246713,40.87610644,"19672","19587","2",Opere Portuali, , ,"0",,"0",0,"0","0","0",No,Nessuna informazione,0,0,0,"0","0",Nessuna,Nessuna,Non verificato, ,"20090047",Olbia,1998/07/31 00:00:00, ,"1958",R. Viola,14157.0669917,{17B9E994-BBF2-4137-8249-D610FDF73259},,14120.1916576181,11466.0279063362
"90081",Badesi,8.87914774,40.96777523,"15834","15700","1",Bassa,Sabbiosa, ,"0",,"0",0,"0","0","0",Si,Stabilità,0,0,0,"0","0",Nessuna,Nessuna,Non verificato, ,"20090081",Castelsardo,1998/07/31 00:00:00, ,"1958",R. Viola,1241.35546567,{1C2E158C-E1C2-426B-9480-B3398822BBDA},,1237.29156756609,1154.67468177692
"90082",Viddalba,8.89457549,40.91705613,"14977","14816","1",Bassa,Sabbiosa, ,"0",,"0",0,"0","0","0",Si,Stabilità,0,0,0,"0","0",Nessuna,Nessuna,Non verificato, ,"20090081",Castelsardo,1998/07/31 00:00:00, ,"1958",R. Viola,6963.54059934,{68DE2DB0-5A06-4C2A-9EB8-4B6DD7AAF17F},,6940.49662012875,5604.59808296991
"90083",Golfo Aranci,9.62236691,41.00152384,"39","35","1",Alta,Rocciosa, ,"0",,"0",0,"0","0","0",Si,Nessuna informazione,0,0,0,"0","0",IGM,Nessuna,Ottima, ,"20090083",Porto Rotondo,1998/07/31 00:00:00, ,"1958",R. Viola,86.29427435,{3940D57B-0F85-46F0-AB9C-E71E3031C5A9},,86.0799374188801,0
"90084",Loiri Porto San Paolo,9.49836273,40.8419132,"7258","7033","1",Bassa,Rocciosa, ,"0",,"0",0,"0","0","0",Si,Nessuna informazione,0,0,0,"0","0",Nessuna,Nessuna,Ottima, ,"20090047",Olbia,1998/07/31 00:00:00, ,"1958",R. Viola,1983.33604637,{961BB36E-9BB2-46DF-89AA-9625C73B7D19},,1978.1644557354,6726.64389349039
"90085",Sant'Antonio di Gallura,9.30130196,40.99103246,"35225","35200","3",Sponde del fiume, , ,"0",,"0",0,"0","0","0",No,Nessuna informazione,0,0,0,"0","0",Nessuna,Nessuna,Non verificato, ,"20090006",Arzachena,1998/07/31 00:00:00, ,"1958",R. Viola,1085.53014354,{80696285-64C5-4689-9CBA-87D28AE8709D},,1082.6427202668,15615.6824678656
"90086",Tergu,8.7124082,40.86290753,"9345","9200","1",Bassa,Sabbiosa, ,"0",,"0",0,"0","0","0",Si,Erosione,1425.09,22140.65,20.54,"36","0",Nessuna,Nessuna,Non verificato, ,"20090023",Platamona,1998/07/31 00:00:00, ,"1958",R. Viola,1065.92822504,{C5D81F94-084E-40BE-B0F3-C0DC0332FF0B},,1062.22981307462,4074.60133274214
"90087",Santa Maria Coghinas,8.86309214,40.90429476,"14977","14816","1",Bassa,Sabbiosa, ,"0",,"0",0,"0","0","0",Si,Stabilità,0,0,0,"0","0",Nessuna,Nessuna,Non verificato, ,"20090081",Castelsardo,1998/07/31 00:00:00, ,"1958",R. Viola,6963.54059934,{68DE2DB0-5A06-4C2A-9EB8-4B6DD7AAF17F},,6940.49662012875,4585.9023202998
"90088",Erula,8.94168684,40.79133118,"8914","9184","1",Bassa,Sabbiosa, ,"0",,"0",0,"0","0","0",Si,Erosione,650.78,9814.77,20.08,"36","0",Nessuna,Nessuna,Non verificato, ,"20090079",Castelsardo,1998/07/31 00:00:00, ,"1958",R. Viola,643.41755833,{4B763EC3-2D40-44DB-9F5D-FE821E1E3860},,641.26183824542,18322.3369973515
"90089",Stintino,8.22629385,40.93699402,"863","725","1",Alta,Rocciosa, ,"0",,"0",0,"0","0","0",Si,Nessuna informazione,0,0,0,"0","0",Nessuna,Nessuna,Non verificato, ,"20090089",Isola,1998/07/31 00:00:00, ,"1958",R. Viola,120.92450881,{3AE59100-234B-4333-8DD1-0658DD9D3D14},,120.448622196905,0
"90090",Padru,9.52254209,40.76705051,"15084","14956","1",Bassa,Sabbiosa, ,"0",,"0",0,"0","0","0",Si,Stabilità,0,0,0,"0","0",Nessuna,Nessuna,Non verificato, ,"20091076",S. Teodoro,1998/05/19 00:00:00, ,"1958",R. Viola,2013.9166517,{FA31DEE4-EC9D-453D-95FB-DFA629C1C80C},,2008.99195595283,11701.4179624201
"90091",Budoni,9.69975634,40.70671935,"34088","34041","3",Collegamento sponde del fiume, , ,"0",,"0",0,"0","0","0",No,Nessuna informazione,0,0,0,"0","0",Nessuna,Nessuna,Non verificato, ,"20091014",Siniscola,2000/05/19 00:00:00, ,"1958",R. Viola,9.17850259,{6FC7C7B9-DF7D-4651-97F7-D7082AB1F591},,9.15638077284501,82.0215771239126
"90092",San Teodoro,9.67191215,40.7712228,"5528","5404","1",Bassa,Rocciosa, ,"0",,"0",0,"0","0","0",Si,Nessuna informazione,0,0,0,"0","0",Nessuna,Nessuna,Ottima, ,"20091076",S. Teodoro,1998/05/19 00:00:00, ,"1958",R. Viola,393.67866862,{F9E70EFE-7FAB-46C0-8165-1D85537CCFAA},,392.719812725009,0
"91001",Aritzo,9.19794984,39.95938538,"32730","32665","3",Collegamento sponde del fiume, , ,"0",,"0",0,"0","0","0",No,Nessuna informazione,0,0,0,"0","0",Nessuna,Nessuna,Non verificato, ,"20091095",Arbatax,1998/05/11 00:00:00, ,"1960",R. Viola,1513.80618061,{FE23F79F-5776-4AD3-9FBC-78919E507CA0},,1510.01988869262,39941.2124459272
"91002",Arzana,9.52836116,39.91850362,"35312","35263","3",Sponde del fiume, , ,"0",,"0",0,"0","0","0",No,Nessuna informazione,0,0,0,"0","0",Nessuna,Nessuna,Non verificato, ,"20091095",Arbatax,1998/05/11 00:00:00, ,"1960",R. Viola,1548.44756807,{7275CEF1-D189-4DE4-B9EE-624D50962F16},,1544.58190737366,11907.9965852463
"91003",Atzara,9.07629541,39.99167325,"20070","20030","2",Opere Portuali, , ,"0",,"0",0,"0","0","0",No,Nessuna informazione,0,0,0,"0","0",Nessuna,Nessuna,Ottima, ,"20095047",Oristano,1998/07/26 00:00:00, ,"1965",R. Viola,10781.4922861,{0CF37167-2AA5-48BE-B00C-8451C0495540},,10741.4074549854,44464.8408379599
"91004",Austis,9.08850029,40.07104643,"2371","2291","1",Alta,Rocciosa, ,"0",,"0",0,"0","0","0",Si,Nessuna informazione,0,0,0,"0","0",Nessuna,Nessuna,Non verificato, ,"20091006",Orosei,1998/05/11 00:00:00, ,"1959",R. Viola,2476.52064019,{3BBEF538-39D8-4708-A1B3-AE6608591B00},,2470.24776895581,46945.3667503511
"91005",Bari Sardo,9.64580126,39.84012545,"16931","16845","1",Bassa,Sabbiosa, ,"0",,"0",0,"0","0","0",Si,Stabilità,0,0,0,"0","0",Nessuna,Nessuna,Ottima, ,"20091005",Quirra,1998/05/11 00:00:00, ,"1961",R. Viola,665.93175851,{B74E7631-C2F9-4C21-881E-C8A5556EF015},,664.26472820379,2176.00222320202
"91006",Baunei,9.66358993,40.03178146,"2364","2284","1",Alta,Rocciosa, ,"0",,"0",0,"0","0","0",Si,Nessuna informazione,0,0,0,"0","0",Nessuna,Nessuna,Non verificato, ,"20091006",Arbatax,1998/05/11 00:00:00, ,"1960",R. Viola,6218.6019597,{4E8AACA9-960F-4FD0-B21E-E7F76BC65A49},,6203.23920505921,2449.67561525613
"91007",Belvì,9.18408371,39.96179317,"32730","32665","3",Collegamento sponde del fiume, , ,"0",,"0",0,"0","0","0",No,Nessuna informazione,0,0,0,"0","0",Nessuna,Nessuna,Non verificato, ,"20091095",Arbatax,1998/05/11 00:00:00, ,"1960",R. Viola,1513.80618061,{FE23F79F-5776-4AD3-9FBC-78919E507CA0},,1510.01988869262,41129.9714929475
"91008",Birori,8.81549457,40.2660499,"33675","33574","3",Sponde del fiume, , ,"0",,"0",0,"0","0","0",No,Nessuna informazione,0,0,0,"0","0",Nessuna,Nessuna,Non verificato, ,"20091013",Bosa,1998/05/12 00:00:00, ,"1958",R. Viola,213.59819778,{F4F8E705-D85E-47C9-86B0-7CB2FFC1C37A},,212.798309183609,27000.7199733626
"91009",Bitti,9.38148118,40.4750622,"311","169","1",Alta,Rocciosa, ,"0",,"0",0,"0","0","0",Si,Nessuna informazione,0,0,0,"0","0",Nessuna,Nessuna,Non verificato, ,"20091017",Orosei,1998/05/12 00:00:00, ,"1959",R. Viola,6079.51606027,{8AD4BA3A-9479-4996-9D42-7DD5AF2F12FF},,6064.33121499593,28635.6424312269
"91010",Bolotana,8.95889386,40.32786442,"33438","33340","3",Sponde del fiume, , ,"0",,"0",0,"0","0","0",No,Nessuna informazione,0,0,0,"0","0",Nessuna,Nessuna,Non verificato, ,"20091013",Bosa,1998/05/12 00:00:00, ,"1958",R. Viola,412.42836781,{BDD2535F-3DAA-4322-B951-2BD128286995},,410.883561401166,39503.7484678388
"91011",Borore,8.80331732,40.2154116,"34084","34037","3",Collegamento sponde del fiume, , ,"0",,"0",0,"0","0","0",No,Nessuna informazione,0,0,0,"0","0",Nessuna,Nessuna,Non verificato, ,"20091013",Bosa,1998/05/12 00:00:00, ,"1958",R. Viola,13.33705856,{C8E60AAF-E070-4BC2-A84F-C6350303ED0B},,13.2871614131999,26708.5788131121
"91012",Bortigali,8.83677489,40.28295387,"33675","33574","3",Sponde del fiume, , ,"0",,"0",0,"0","0","0",No,Nessuna informazione,0,0,0,"0","0",Nessuna,Nessuna,Non verificato, ,"20091013",Bosa,1998/05/12 00:00:00, ,"1958",R. Viola,213.59819778,{F4F8E705-D85E-47C9-86B0-7CB2FFC1C37A},,212.798309183609,28822.313929053
"91016",Desulo,9.22870581,40.01122541,"32904","34043","3",Collegamento sponde del fiume, , ,"0",,"0",0,"0","0","0",No,Nessuna informazione,0,0,0,"0","0",Nessuna,Nessuna,Non verificato, ,"20091042",Arbatax,1998/05/11 00:00:00, ,"1960",R. Viola,34.54244108,{4ECD7A0B-F2B1-4305-B7F5-124B3593B8D7},,34.4562861128047,37722.5032994955
"91017",Dorgali,9.58812096,40.28928609,"16936","16850","1",Bassa,Sabbiosa, ,"0",,"0",0,"0","0","0",Si,Stabilità,0,0,0,"0","0",Nessuna,Nessuna,Ottima, ,"20091017",Orosei,1998/05/12 00:00:00, ,"1959",R. Viola,857.57443699,{7C8DE7ED-C76B-49EE-9513-30A485A010E0},,855.408867976658,3003.75383304976
"91018",Dualchi,8.90022839,40.23037556,"34084","34037","3",Collegamento sponde del fiume, , ,"0",,"0",0,"0","0","0",No,Nessuna informazione,0,0,0,"0","0",Nessuna,Nessuna,Non verificato, ,"20091013",Bosa,1998/05/12 00:00:00, ,"1958",R. Viola,13.33705856,{C8E60AAF-E070-4BC2-A84F-C6350303ED0B},,13.2871614131999,34515.1087126475
"91019",Elini,9.53114083,39.90000155,"16061","15940","1",Bassa,Sabbiosa, ,"0",,"0",0,"0","0","0",Si,Stabilità,0,0,0,"0","0",Nessuna,Nessuna,Ottima, ,"20091095",Quirra,1998/05/11 00:00:00, ,"1961",R. Viola,478.04719921,{B12C2FD0-23EE-47BA-B79E-2ECB363FFF60},,476.851416559018,11851.2196103776
"91024",Fonni,9.25241157,40.12002775,"2371","2291","1",Alta,Rocciosa, ,"0",,"0",0,"0","0","0",Si,Nessuna informazione,0,0,0,"0","0",Nessuna,Nessuna,Non verificato, ,"20091006",Orosei,1998/05/11 00:00:00, ,"1959",R. Viola,2476.52064019,{3BBEF538-39D8-4708-A1B3-AE6608591B00},,2470.24776895581,32039.2648618671
"91025",Gadoni,9.18309314,39.91270924,"32730","32665","3",Collegamento sponde del fiume, , ,"0",,"0",0,"0","0","0",No,Nessuna informazione,0,0,0,"0","0",Nessuna,Nessuna,Non verificato, ,"20091095",Arbatax,1998/05/11 00:00:00, ,"1960",R. Viola,1513.80618061,{FE23F79F-5776-4AD3-9FBC-78919E507CA0},,1510.01988869262,41308.107742474
"91026",Gairo,9.5061878,39.84762882,"15869","15748","1",Bassa,Sabbiosa, ,"0",,"0",0,"0","0","0",Si,Stabilità,0,0,0,"0","0",Nessuna,Nessuna,Non verificato, ,"20091005",Quirra,1998/05/11 00:00:00, ,"1961",R. Viola,2459.31374308,{A7B039F0-4AE3-412D-9F02-2CE0147A4A53},,2453.14011214381,13930.1795437523
"91027",Galtellì,9.61671055,40.38662593,"35171","35146","3",Sponde del fiume, , ,"0",,"0",0,"0","0","0",No,Nessuna informazione,0,0,0,"0","0",Nessuna,Nessuna,Non verificato, ,"20091063",Orosei,1998/05/12 00:00:00, ,"1959",R. Viola,569.86390384,{3FD53E1D-593C-467C-993F-0FC2095EF778},,568.455904662058,6737.66357945154
"91028",Gavoi,9.19497917,40.1587997,"2374","2294","1",Alta,Rocciosa, ,"0",,"0",0,"0","0","0",Si,Nessuna informazione,0,0,0,"0","0",Nessuna,Nessuna,Non verificato, ,"20091006",Orosei,1998/05/12 00:00:00, ,"1959",R. Viola,3614.65996442,{9B68BABA-0945-4F38-9AE6-3E5801BD49AB},,3605.49828601055,36071.8846013686
"91031",Girasole,9.66134528,39.95336534,"32730","32665","3",Collegamento sponde del fiume, , ,"0",,"0",0,"0","0","0",No,Nessuna informazione,0,0,0,"0","0",Nessuna,Nessuna,Non verificato, ,"20091095",Arbatax,1998/05/11 00:00:00, ,"1960",R. Viola,1513.80618061,{FE23F79F-5776-4AD3-9FBC-78919E507CA0},,1510.01988869262,354.470622427152
"91032",Ilbono,9.54177763,39.89374018,"16061","15940","1",Bassa,Sabbiosa, ,"0",,"0",0,"0","0","0",Si,Stabilità,0,0,0,"0","0",Nessuna,Nessuna,Ottima, ,"20091095",Quirra,1998/05/11 00:00:00, ,"1961",R. Viola,478.04719921,{B12C2FD0-23EE-47BA-B79E-2ECB363FFF60},,476.851416559018,10898.6526246484
"91033",Irgoli,9.630527,40.40931635,"35281","35232","3",Sponde del fiume, , ,"0",,"0",0,"0","0","0",No,Nessuna informazione,0,0,0,"0","0",Nessuna,Nessuna,Non verificato, ,"20091063",Orosei,1998/05/12 00:00:00, ,"1959",R. Viola,918.26265374,{FF12A375-6646-4F90-B4C6-A110680990AF},,916.028774976852,7551.36306989454
"91035",Jerzu,9.51851706,39.79284428,"9281","9123","1",Bassa,Sabbiosa, ,"0",,"0",0,"0","0","0",Si,Erosione,185.03,2340.95,17.65,"32","0",Nessuna,Nessuna,Non verificato, ,"20091103",Quirra,1998/05/11 00:00:00, ,"1961",R. Viola,185.90576779,{06101054-909E-483D-A29D-82D8D8290BBE},,185.437165531882,11976.6466635441
"91037",Lanusei,9.54229961,39.87682776,"16196","16010","1",Bassa,Sabbiosa, ,"0",,"0",0,"0","0","0",Si,Stabilità,0,0,0,"0","0",Nessuna,Nessuna,Non verificato, ,"20091095",Quirra,1998/05/11 00:00:00, ,"1961",R. Viola,372.90470079,{9B7A365A-2791-45A2-965C-6E30E84D8746},,371.972067302852,10878.0766751717
"91038",Lei,8.92023143,40.307525,"33438","33340","3",Sponde del fiume, , ,"0",,"0",0,"0","0","0",No,Nessuna informazione,0,0,0,"0","0",Nessuna,Nessuna,Non verificato, ,"20091013",Bosa,1998/05/12 00:00:00, ,"1958",R. Viola,412.42836781,{BDD2535F-3DAA-4322-B951-2BD128286995},,410.883561401166,36079.8644571281
"91039",Loceri,9.58207008,39.8567128,"16195","16009","1",Bassa,Sabbiosa, ,"0",,"0",0,"0","0","0",Si,Stabilità,0,0,0,"0","0",Nessuna,Nessuna,Non verificato, ,"20091095",Quirra,1998/05/11 00:00:00, ,"1961",R. Viola,968.58581751,{B9962B06-2805-435E-AF94-1EB71093D309},,966.163856547878,7726.7188659113
"91040",Loculi,9.61104893,40.40674552,"15930","15809","1",Bassa,Sabbiosa, ,"0",,"0",0,"0","0","0",Si,Stabilità,0,0,0,"0","0",Nessuna,Nessuna,Non verificato, ,"20091063",Orosei,1998/05/12 00:00:00, ,"1959",R. Viola,2854.19522755,{89FFF778-1137-4A8E-A8BE-EEE25067158C},,2847.17758006952,8628.27376865433
"91041",Lodè,9.5395666,40.59132135,"35292","35243","3",Sponde del fiume, , ,"0",,"0",0,"0","0","0",No,Nessuna informazione,0,0,0,"0","0",Nessuna,Nessuna,Non verificato, ,"20091073",Siniscola,1998/05/19 00:00:00, ,"1958",R. Viola,287.12103892,{2B38273E-C177-4A4E-97BB-2EF79A2C0F7B},,286.43742292238,16524.6537084718
"91042",Lotzorai,9.66253025,39.96938761,"35165","35140","3",Sponde del fiume, , ,"0",,"0",0,"0","0","0",No,Nessuna informazione,0,0,0,"0","0",Nessuna,Nessuna,Non verificato, ,"20091042",Arbatax,1998/05/11 00:00:00, ,"1960",R. Viola,921.68448172,{E8A924F6-C393-4BBB-AB2A-7952B628A5BA},,919.387896950153,507.033682863539
"91043",Lula,9.48504099,40.47129053,"32907","34046","3",Collegamento sponde del fiume, , ,"0",,"0",0,"0","0","0",No,Nessuna informazione,0,0,0,"0","0",Nessuna,Nessuna,Non verificato, ,"20091063",Orosei,1998/05/12 00:00:00, ,"1959",R. Viola,17.17287158,{24CF3F0A-372B-4586-8E88-F67244E68EF8},,17.1304604787379,21309.652585085
"91044",Macomer,8.78250254,40.26504905,"33675","33574","3",Sponde del fiume, , ,"0",,"0",0,"0","0","0",No,Nessuna informazione,0,0,0,"0","0",Nessuna,Nessuna,Non verificato, ,"20091013",Bosa,1998/05/12 00:00:00, ,"1958",R. Viola,213.59819778,{F4F8E705-D85E-47C9-86B0-7CB2FFC1C37A},,212.798309183609,24200.2076037547
"91046",Mamoiada,9.283939,40.21438631,"13568","13444","1",Bassa,Sabbiosa, ,"0",,"0",0,"0","0","0",Si,Stabilità,0,0,0,"0","0",Nessuna,Nessuna,Non verificato, ,"20091017",Orosei,1998/05/12 00:00:00, ,"1959",R. Viola,84.4054146,{8B843D6C-6692-47B1-8F6E-65055C873012},,84.1910846449164,27957.6468505069
"91047",Meana Sardo,9.068869,39.94761193,"20070","20030","2",Opere Portuali, , ,"0",,"0",0,"0","0","0",No,Nessuna informazione,0,0,0,"0","0",Nessuna,Nessuna,Ottima, ,"20095047",Oristano,1998/07/26 00:00:00, ,"1965",R. Viola,10781.4922861,{0CF37167-2AA5-48BE-B00C-8451C0495540},,10741.4074549854,42587.8366023506
"91050",Noragugume,8.9199679,40.22475175,"34084","34037","3",Collegamento sponde del fiume, , ,"0",,"0",0,"0","0","0",No,Nessuna informazione,0,0,0,"0","0",Nessuna,Nessuna,Non verificato, ,"20091013",Bosa,1998/05/12 00:00:00, ,"1958",R. Viola,13.33705856,{C8E60AAF-E070-4BC2-A84F-C6350303ED0B},,13.2871614131999,36265.328079967
"91051",Nuoro,9.33029639,40.32318834,"310","168","1",Alta,Rocciosa, ,"0",,"0",0,"0","0","0",Si,Nessuna informazione,0,0,0,"0","0",Nessuna,Nessuna,Non verificato, ,"20091017",Orosei,1998/05/12 00:00:00, ,"1959",R. Viola,1844.06300384,{6BEF3B65-36D2-46C6-9CB0-CF336BCC737B},,1839.39649302552,25069.1393113316
"91055",Oliena,9.40594815,40.27132245,"309","167","1",Alta,Rocciosa, ,"0",,"0",0,"0","0","0",Si,Nessuna informazione,0,0,0,"0","0",Nessuna,Nessuna,Non verificato, ,"20091017",Orosei,1998/05/12 00:00:00, ,"1959",R. Viola,2412.30967459,{6EB99463-5610-496A-BDCD-48FAC25B2A63},,2406.19191031238,17635.3135721068
"91056",Ollolai,9.1812239,40.16919014,"2374","2294","1",Alta,Rocciosa, ,"0",,"0",0,"0","0","0",Si,Nessuna informazione,0,0,0,"0","0",Nessuna,Nessuna,Non verificato, ,"20091006",Orosei,1998/05/12 00:00:00, ,"1959",R. Viola,3614.65996442,{9B68BABA-0945-4F38-9AE6-3E5801BD49AB},,3605.49828601055,37078.2652370911
"91057",Olzai,9.1488792,40.18284857,"2374","2294","1",Alta,Rocciosa, ,"0",,"0",0,"0","0","0",Si,Nessuna informazione,0,0,0,"0","0",Nessuna,Nessuna,Non verificato, ,"20091006",Orosei,1998/05/12 00:00:00, ,"1959",R. Viola,3614.65996442,{9B68BABA-0945-4F38-9AE6-3E5801BD49AB},,3605.49828601055,39678.5657533545
"91058",Onanì,9.44086593,40.48438914,"32907","34046","3",Collegamento sponde del fiume, , ,"0",,"0",0,"0","0","0",No,Nessuna informazione,0,0,0,"0","0",Nessuna,Nessuna,Non verificato, ,"20091063",Orosei,1998/05/12 00:00:00, ,"1959",R. Viola,17.17287158,{24CF3F0A-372B-4586-8E88-F67244E68EF8},,17.1304604787379,25105.5769630266
"91059",Onifai,9.65132236,40.40719675,"34188","34072","3",Collegamento sponde del fiume, , ,"0",,"0",0,"0","0","0",No,Nessuna informazione,0,0,0,"0","0",Nessuna,Nessuna,Non verificato, ,"20091063",Orosei,1998/05/12 00:00:00, ,"1959",R. Viola,22.49550206,{4C8BB79C-8022-4F30-8DBB-1D8BE4B8A1C2},,22.4409152225245,5983.08131351763
"91060",Oniferi,9.17025595,40.27218119,"309","167","1",Alta,Rocciosa, ,"0",,"0",0,"0","0","0",Si,Nessuna informazione,0,0,0,"0","0",Nessuna,Nessuna,Non verificato, ,"20091017",Orosei,1998/05/12 00:00:00, ,"1959",R. Viola,2412.30967459,{6EB99463-5610-496A-BDCD-48FAC25B2A63},,2406.19191031238,37601.0696690933
"91061",Orani,9.17745617,40.25006515,"309","167","1",Alta,Rocciosa, ,"0",,"0",0,"0","0","0",Si,Nessuna informazione,0,0,0,"0","0",Nessuna,Nessuna,Non verificato, ,"20091017",Orosei,1998/05/12 00:00:00, ,"1959",R. Viola,2412.30967459,{6EB99463-5610-496A-BDCD-48FAC25B2A63},,2406.19191031238,36882.8163004151
"91062",Orgosolo,9.355513,40.20531708,"2374","2294","1",Alta,Rocciosa, ,"0",,"0",0,"0","0","0",Si,Nessuna informazione,0,0,0,"0","0",Nessuna,Nessuna,Non verificato, ,"20091006",Orosei,1998/05/12 00:00:00, ,"1959",R. Viola,3614.65996442,{9B68BABA-0945-4F38-9AE6-3E5801BD49AB},,3605.49828601055,21995.2440829083
"91063",Orosei,9.6971319,40.37860068,"34188","34072","3",Collegamento sponde del fiume, , ,"0",,"0",0,"0","0","0",No,Nessuna informazione,0,0,0,"0","0",Nessuna,Nessuna,Non verificato, ,"20091063",Orosei,1998/05/12 00:00:00, ,"1959",R. Viola,22.49550206,{4C8BB79C-8022-4F30-8DBB-1D8BE4B8A1C2},,22.4409152225245,964.256509158888
"91064",Orotelli,9.11227876,40.30281646,"309","167","1",Alta,Rocciosa, ,"0",,"0",0,"0","0","0",Si,Nessuna informazione,0,0,0,"0","0",Nessuna,Nessuna,Non verificato, ,"20091017",Orosei,1998/05/12 00:00:00, ,"1959",R. Viola,2412.30967459,{6EB99463-5610-496A-BDCD-48FAC25B2A63},,2406.19191031238,42839.9448133605
"91066",Ortueri,8.98548427,40.0360808,"20070","20030","2",Opere Portuali, , ,"0",,"0",0,"0","0","0",No,Nessuna informazione,0,0,0,"0","0",Nessuna,Nessuna,Ottima, ,"20095047",Oristano,1998/07/26 00:00:00, ,"1965",R. Viola,10781.4922861,{0CF37167-2AA5-48BE-B00C-8451C0495540},,10741.4074549854,39208.1032892886
"91067",Orune,9.36973906,40.40613244,"16937","16851","1",Bassa,Sabbiosa, ,"0",,"0",0,"0","0","0",Si,Stabilità,0,0,0,"0","0",Nessuna,Nessuna,Ottima, ,"20091017",Orosei,1998/05/12 00:00:00, ,"1959",R. Viola,585.10409527,{86B1D429-04BE-49D6-941C-583AF8CAD33B},,583.629576479311,25474.7044594089
"91068",Osidda,9.21879347,40.5241536,"311","169","1",Alta,Rocciosa, ,"0",,"0",0,"0","0","0",Si,Nessuna informazione,0,0,0,"0","0",Nessuna,Nessuna,Non verificato, ,"20091017",Orosei,1998/05/12 00:00:00, ,"1959",R. Viola,6079.51606027,{8AD4BA3A-9479-4996-9D42-7DD5AF2F12FF},,6064.33121499593,43172.2160031246
"91069",Osini,9.49729144,39.82199597,"9825","9679","1",Bassa,Sabbiosa, ,"0",,"0",0,"0","0","0",Si,Erosione,494.53,7746.81,20.66,"32","0",Nessuna,Nessuna,Non verificato, ,"20091005",Quirra,1998/05/11 00:00:00, ,"1961",R. Viola,497.10494438,{2C7D2CAF-91CF-4C11-AA02-80A434DD767A},,495.85343761777,14137.2471942942
"91070",Ottana,9.04544422,40.23499206,"34084","34037","3",Collegamento sponde del fiume, , ,"0",,"0",0,"0","0","0",No,Nessuna informazione,0,0,0,"0","0",Nessuna,Nessuna,Non verificato, ,"20091013",Bosa,1998/05/12 00:00:00, ,"1958",R. Viola,13.33705856,{C8E60AAF-E070-4BC2-A84F-C6350303ED0B},,13.2871614131999,46736.3965809513
"91071",Ovodda,9.16096608,40.09618886,"2371","2291","1",Alta,Rocciosa, ,"0",,"0",0,"0","0","0",Si,Nessuna informazione,0,0,0,"0","0",Nessuna,Nessuna,Non verificato, ,"20091006",Orosei,1998/05/11 00:00:00, ,"1959",R. Viola,2476.52064019,{3BBEF538-39D8-4708-A1B3-AE6608591B00},,2470.24776895581,40245.5618935914
"91072",Perdasdefogu,9.44161471,39.67797681,"16037","15916","1",Bassa,Sabbiosa, ,"0",,"0",0,"0","0","0",Si,Stabilità,0,0,0,"0","0",Nessuna,Nessuna,Non verificato, ,"20091089",Quirra,1998/05/09 00:00:00, ,"1961",R. Viola,1157.79836347,{40AA7035-FE15-4691-8DF5-4BFE48376FF0},,1154.84065944366,16873.7097098257
"91073",Posada,9.71799746,40.63326084,"16014","15893","1",Bassa,Sabbiosa, ,"0",,"0",0,"0","0","0",Si,Stabilità,0,0,0,"0","0",Nessuna,Nessuna,Non verificato, ,"20091073",Siniscola,1998/05/19 00:00:00, ,"1958",R. Viola,1342.40127233,{629FC72A-2FE9-4A6B-AE3E-1A139F42D8B2},,1339.20328654718,1002.42417228131
"91077",Sarule,9.16599769,40.22896356,"13568","13444","1",Bassa,Sabbiosa, ,"0",,"0",0,"0","0","0",Si,Stabilità,0,0,0,"0","0",Nessuna,Nessuna,Non verificato, ,"20091017",Orosei,1998/05/12 00:00:00, ,"1959",R. Viola,84.4054146,{8B843D6C-6692-47B1-8F6E-65055C873012},,84.1910846449164,37877.9111020662
"91083",Silanus,8.88945016,40.2904498,"33675","33574","3",Sponde del fiume, , ,"0",,"0",0,"0","0","0",No,Nessuna informazione,0,0,0,"0","0",Nessuna,Nessuna,Non verificato, ,"20091013",Bosa,1998/05/12 00:00:00, ,"1958",R. Viola,213.59819778,{F4F8E705-D85E-47C9-86B0-7CB2FFC1C37A},,212.798309183609,33335.3624935571
"91084",Sindia,8.65939076,40.29607418,"33438","33340","3",Sponde del fiume, , ,"0",,"0",0,"0","0","0",No,Nessuna informazione,0,0,0,"0","0",Nessuna,Nessuna,Non verificato, ,"20091013",Bosa,1998/05/12 00:00:00, ,"1958",R. Viola,412.42836781,{BDD2535F-3DAA-4322-B951-2BD128286995},,410.883561401166,13886.3606960916
"91085",Siniscola,9.69428347,40.57500849,"33461","33354","3",Collegamento sponde del fiume, , ,"0",,"0",0,"0","0","0",No,Nessuna informazione,0,0,0,"0","0",Nessuna,Nessuna,Non verificato, ,"20091085",Siniscola,1998/05/19 00:00:00, ,"1958",R. Viola,26.09102661,{EB57BC85-021C-4932-A75C-A16A82E45823},,26.0291729227823,4352.69930572971
"91086",Sorgono,9.1037116,40.0277987,"2371","2291","1",Alta,Rocciosa, ,"0",,"0",0,"0","0","0",Si,Nessuna informazione,0,0,0,"0","0",Nessuna,Nessuna,Non verificato, ,"20091006",Orosei,1998/05/11 00:00:00, ,"1959",R. Viola,2476.52064019,{3BBEF538-39D8-4708-A1B3-AE6608591B00},,2470.24776895581,47237.1441531842
"91088",Talana,9.49692038,40.04116818,"35166","35141","3",Sponde del fiume, , ,"0",,"0",0,"0","0","0",No,Nessuna informazione,0,0,0,"0","0",Nessuna,Nessuna,Non verificato, ,"20091042",Arbatax,1998/05/11 00:00:00, ,"1960",R. Viola,874.67521409,{272B4AFC-A3DA-4FBE-8915-8227DFFD2B21},,872.496020855172,16321.8206065808
"91089",Tertenia,9.57723938,39.69697794,"35311","35262","3",Sponde del fiume, , ,"0",,"0",0,"0","0","0",No,Nessuna informazione,0,0,0,"0","0",Nessuna,Nessuna,Non verificato, ,"20091089",Quirra,1998/05/09 00:00:00, ,"1961",R. Viola,618.11753987,{AE189127-20A6-486F-8DF7-5E2E5EA3E61E},,616.546423321072,5585.3282658986
"91090",Teti,9.1192594,40.09643695,"2371","2291","1",Alta,Rocciosa, ,"0",,"0",0,"0","0","0",Si,Nessuna informazione,0,0,0,"0","0",Nessuna,Nessuna,Non verificato, ,"20091006",Orosei,1998/05/11 00:00:00, ,"1959",R. Viola,2476.52064019,{3BBEF538-39D8-4708-A1B3-AE6608591B00},,2470.24776895581,43683.2240033961
"91091",Tiana,9.14888448,40.06739505,"2371","2291","1",Alta,Rocciosa, ,"0",,"0",0,"0","0","0",Si,Nessuna informazione,0,0,0,"0","0",Nessuna,Nessuna,Non verificato, ,"20091006",Orosei,1998/05/11 00:00:00, ,"1959",R. Viola,2476.52064019,{3BBEF538-39D8-4708-A1B3-AE6608591B00},,2470.24776895581,42131.2770164371
"91093",Tonara,9.17357341,40.0247705,"2371","2291","1",Alta,Rocciosa, ,"0",,"0",0,"0","0","0",Si,Nessuna informazione,0,0,0,"0","0",Nessuna,Nessuna,Non verificato, ,"20091006",Orosei,1998/05/11 00:00:00, ,"1959",R. Viola,2476.52064019,{3BBEF538-39D8-4708-A1B3-AE6608591B00},,2470.24776895581,41847.3890522217
"91094",Torpè,9.67845413,40.62868,"34194","34078","3",Collegamento sponde del fiume, , ,"0",,"0",0,"0","0","0",No,Nessuna informazione,0,0,0,"0","0",Nessuna,Nessuna,Non verificato, ,"20091073",Siniscola,1998/05/19 00:00:00, ,"1958",R. Viola,35.26626959,{96B11E21-C13B-43E3-9067-27EFAC3E868D},,35.1818444799626,4121.9964493023
"91095",Tortolì,9.6572995,39.92543146,"35312","35263","3",Sponde del fiume, , ,"0",,"0",0,"0","0","0",No,Nessuna informazione,0,0,0,"0","0",Nessuna,Nessuna,Non verificato, ,"20091095",Arbatax,1998/05/11 00:00:00, ,"1960",R. Viola,1548.44756807,{7275CEF1-D189-4DE4-B9EE-624D50962F16},,1544.58190737366,1298.68171085999
"91097",Triei,9.64122065,40.03692502,"2364","2284","1",Alta,Rocciosa, ,"0",,"0",0,"0","0","0",Si,Nessuna informazione,0,0,0,"0","0",Nessuna,Nessuna,Non verificato, ,"20091006",Arbatax,1998/05/11 00:00:00, ,"1960",R. Viola,6218.6019597,{4E8AACA9-960F-4FD0-B21E-E7F76BC65A49},,6203.23920505921,4439.95749104875
"91098",Ulassai,9.49990537,39.811571,"9825","9679","1",Bassa,Sabbiosa, ,"0",,"0",0,"0","0","0",Si,Erosione,494.53,7746.81,20.66,"32","0",Nessuna,Nessuna,Non verificato, ,"20091005",Quirra,1998/05/11 00:00:00, ,"1961",R. Viola,497.10494438,{2C7D2CAF-91CF-4C11-AA02-80A434DD767A},,495.85343761777,13774.2152044096
"91099",Urzulei,9.5073548,40.09360817,"2368","2288","1",Alta,Rocciosa, ,"0",,"0",0,"0","0","0",Si,Nessuna informazione,0,0,0,"0","0",Nessuna,Nessuna,Non verificato, ,"20091006",Orosei,1998/05/11 00:00:00, ,"1959",R. Viola,4502.9844175,{074C2024-EF16-4276-965C-3FE818C1E23F},,4491.71861806321,12674.0771599711
"91100",Ussassai,9.39347874,39.810562,"9513","9495","1",Bassa,Sabbiosa, ,"0",,"0",0,"0","0","0",Si,Erosione,353.15,3114.16,13.82,"32","0",Nessuna,Nessuna,Non verificato, ,"20091103",Quirra,1998/05/11 00:00:00, ,"1961",R. Viola,259.25098369,{73008E27-29D3-43EE-8CEE-0D5486EEB0B4},,258.597408807885,22825.3069453325
"91101",Villagrande Strisaili,9.50642291,39.96182375,"35315","35266","3",Sponde del fiume, , ,"0",,"0",0,"0","0","0",No,Nessuna informazione,0,0,0,"0","0",Nessuna,Nessuna,Non verificato, ,"20091095",Arbatax,1998/05/11 00:00:00, ,"1960",R. Viola,405.93058447,{6CE64F06-5998-4B4F-8121-FFA36EFA74F2},,404.916096602006,13619.4412658378
"91103",Cardedu,9.62540588,39.79580077,"9668","9814","1",Bassa,Sabbiosa, ,"0",,"0",0,"0","0","0",Si,Erosione,654.09,7967.48,17.18,"32","0",Nessuna,Nessuna,Non verificato, ,"20091103",Quirra,1998/05/11 00:00:00, ,"1961",R. Viola,657.95731496,{8297AF57-CAC2-42E0-ADDF-E623E9BE1E92},,656.299682092752,2908.63064033802
"91104",Lodine,9.21935687,40.14776166,"2371","2291","1",Alta,Rocciosa, ,"0",,"0",0,"0","0","0",Si,Nessuna informazione,0,0,0,"0","0",Nessuna,Nessuna,Non verificato, ,"20091006",Orosei,1998/05/11 00:00:00, ,"1959",R. Viola,2476.52064019,{3BBEF538-39D8-4708-A1B3-AE6608591B00},,2470.24776895581,34204.662693982
"92003",Assemini,9.0062327,39.28961728,"4102","4219","1",Bassa,Rocciosa, ,"0",,"0",0,"0","0","0",No,Nessuna informazione,0,0,0,"0","0",Nessuna,Nessuna,Non verificato, ,"20092009",Sarroch,1998/05/10 00:00:00, ,"1958",R. Viola,14402.7657808,{CF93F619-C81B-45ED-9423-CD0656822F5B},,14355.5720586775,1498.58914920346
"92009",Cagliari,9.11061631,39.21531191,"19187","19041","2",Opere Portuali, , ,"0",,"0",0,"0","0","0",No,Nessuna informazione,0,0,0,"0","0",Nessuna,Nessuna,Non verificato, ,"20092009",Cagliari,1998/05/10 00:00:00, ,"1958",R. Viola,3054.72995123,{8E081943-1076-4AB2-93B5-F874B4B8599F},,3045.02670405458,0
"92011",Capoterra,8.97449734,39.17394789,"35338","35289","3",Sponde del fiume, , ,"0",,"0",0,"0","0","0",No,Nessuna informazione,0,0,0,"0","0",Nessuna,Nessuna,Non verificato, ,"20092011",Sarroch,1998/05/10 00:00:00, ,"1958",R. Viola,301.3260067,{866A1047-63E6-463E-AFE7-C4450E433B82},,300.33843761574,3597.02182850291
"92015",Decimomannu,8.96564789,39.31099768,"4102","4219","1",Bassa,Rocciosa, ,"0",,"0",0,"0","0","0",No,Nessuna informazione,0,0,0,"0","0",Nessuna,Nessuna,Non verificato, ,"20092009",Sarroch,1998/05/10 00:00:00, ,"1958",R. Viola,14402.7657808,{CF93F619-C81B-45ED-9423-CD0656822F5B},,14355.5720586775,4950.99412613795
"92037",Maracalagonis,9.22819506,39.28523164,"7001","8626","1",Bassa,Sabbiosa, ,"0",,"0",0,"0","0","0",Si,Avanzamento,1638.51,59971.42,41.6,"68","0",Nessuna,Nessuna,Non verificato, ,"20092051",Quartu S. Elena,1998/05/10 00:00:00, ,"1958",R. Viola,1620.57982177,{514831DF-8EA8-416C-B0BD-6248E00749C5},,1615.62575612442,5326.36541681511
"92050",Pula,9.00076992,39.0107024,"35358","35309","3",Sponde del fiume, , ,"0",,"0",0,"0","0","0",No,Nessuna informazione,0,0,0,"0","0",Nessuna,Nessuna,Non verificato, ,"20092050",Pula,1998/05/10 00:00:00, ,"1958",R. Viola,1020.16146232,{FCF3DD6C-F15E-47FC-9F02-2085575EE165},,1016.79953039068,305.672209921226
"92051",Quartu Sant'Elena,9.18534391,39.24108358,"16261","16098","1",Bassa,Sabbiosa, ,"0",,"0",0,"0","0","0",Si,Stabilità,0,0,0,"0","0",Nessuna,Nessuna,Non verificato, ,"20092051",Quartu S. Elena,1998/05/10 00:00:00, ,"1958",R. Viola,2653.8863663,{A9EA6438-6C4B-47BC-88E8-813339ABBEA2},,2645.70411323583,1245.30517992675
"92066",Sarroch,9.01116261,39.06353751,"16276","16113","1",Bassa,Sabbiosa, ,"0",,"0",0,"0","0","0",Si,Stabilità,0,0,0,"0","0",Nessuna,Nessuna,Non verificato, ,"20092066",Sarroch,1998/05/10 00:00:00, ,"1958",R. Viola,170.92310703,{565D4160-A705-4887-B6C2-7BBE88D228CD},,170.362540518456,857.413402545442
"92068",Selargius,9.16555545,39.25370354,"16261","16098","1",Bassa,Sabbiosa, ,"0",,"0",0,"0","0","0",Si,Stabilità,0,0,0,"0","0",Nessuna,Nessuna,Non verificato, ,"20092051",Quartu S. Elena,1998/05/10 00:00:00, ,"1958",R. Viola,2653.8863663,{A9EA6438-6C4B-47BC-88E8-813339ABBEA2},,2645.70411323583,3264.03932735764
"92074",Sestu,9.09194598,39.30031871,"4102","4219","1",Bassa,Rocciosa, ,"0",,"0",0,"0","0","0",No,Nessuna informazione,0,0,0,"0","0",Nessuna,Nessuna,Non verificato, ,"20092009",Sarroch,1998/05/10 00:00:00, ,"1958",R. Viola,14402.7657808,{CF93F619-C81B-45ED-9423-CD0656822F5B},,14355.5720586775,5051.08991862645
"92075",Settimo San Pietro,9.18402554,39.29178454,"16261","16098","1",Bassa,Sabbiosa, ,"0",,"0",0,"0","0","0",Si,Stabilità,0,0,0,"0","0",Nessuna,Nessuna,Non verificato, ,"20092051",Quartu S. Elena,1998/05/10 00:00:00, ,"1958",R. Viola,2653.8863663,{A9EA6438-6C4B-47BC-88E8-813339ABBEA2},,2645.70411323583,6545.31083619569
"92080",Sinnai,9.20553239,39.29749167,"7001","8626","1",Bassa,Sabbiosa, ,"0",,"0",0,"0","0","0",Si,Avanzamento,1638.51,59971.42,41.6,"68","0",Nessuna,Nessuna,Non verificato, ,"20092051",Quartu S. Elena,1998/05/10 00:00:00, ,"1958",R. Viola,1620.57982177,{514831DF-8EA8-416C-B0BD-6248E00749C5},,1615.62575612442,6806.77486811091
"92090",Uta,8.95297842,39.29305859,"4102","4219","1",Bassa,Rocciosa, ,"0",,"0",0,"0","0","0",No,Nessuna informazione,0,0,0,"0","0",Nessuna,Nessuna,Non verificato, ,"20092009",Sarroch,1998/05/10 00:00:00, ,"1958",R. Viola,14402.7657808,{CF93F619-C81B-45ED-9423-CD0656822F5B},,14355.5720586775,4265.96923614148
"92099",Villa San Pietro,8.9950801,39.03382938,"9332","9187","1",Bassa,Sabbiosa, ,"0",,"0",0,"0","0","0",Si,Erosione,1410.56,36932,31.18,"52","0",Nessuna,Nessuna,Non verificato, ,"20092066",Pula,1998/05/10 00:00:00, ,"1958",R. Viola,482.49681956,{E6C68BE6-64E7-4374-8E81-950355EE128A},,480.910326284375,1919.45013537516
"92105",Quartucciu,9.1800272,39.25427575,"16261","16098","1",Bassa,Sabbiosa, ,"0",,"0",0,"0","0","0",Si,Stabilità,0,0,0,"0","0",Nessuna,Nessuna,Non verificato, ,"20092051",Quartu S. Elena,1998/05/10 00:00:00, ,"1958",R. Viola,2653.8863663,{A9EA6438-6C4B-47BC-88E8-813339ABBEA2},,2645.70411323583,2763.81811520017
"92108",Elmas,9.04884749,39.27088656,"18248","18137","2","Altro (lidi, pontili, ecc.)", , ,"0",,"0",0,"0","0","0",No,Nessuna informazione,0,0,0,"0","0",Nessuna,Nessuna,Ottima, ,"20092009",Sarroch,1998/05/10 00:00:00, ,"1958",R. Viola,715.90198032,{E6D506B7-46F8-48F2-8511-909A8B765E5E},,713.575034807106,111.203309932168
"92109",Monserrato,9.14343861,39.25407412,"4101","4218","1",Bassa,Rocciosa, ,"0",,"0",0,"0","0","0",No,Nessuna informazione,0,0,0,"0","0",Nessuna,Nessuna,Non verificato, ,"20092009",Sarroch,1998/05/10 00:00:00, ,"1958",R. Viola,187.81252285,{32E92EE9-5B3D-422C-8B97-DD193AA0112E},,187.211234787359,4248.32995993372
"95001",Abbasanta,8.82102235,40.12390307,"9875","9729","1",Bassa,Sabbiosa, ,"0",,"0",0,"0","0","0",Si,Erosione,510.24,23338.98,50.74,"76","0",Nessuna,Nessuna,Non verificato, ,"20095019",Is Arenas,1998/05/11 00:00:00, ,"1958",R. Viola,392.67376837,{C7A243E2-EE78-4F79-8BE1-C43AADC8860A},,391.198035149061,27219.0360428732
"95002",Aidomaggiore,8.856434,40.17186399,"9875","9729","1",Bassa,Sabbiosa, ,"0",,"0",0,"0","0","0",Si,Erosione,510.24,23338.98,50.74,"76","0",Nessuna,Nessuna,Non verificato, ,"20095019",Is Arenas,1998/05/11 00:00:00, ,"1958",R. Viola,392.67376837,{C7A243E2-EE78-4F79-8BE1-C43AADC8860A},,391.198035149061,31058.7014618081
"95003",Albagiara,8.86062815,39.78826485,"20070","20030","2",Opere Portuali, , ,"0",,"0",0,"0","0","0",No,Nessuna informazione,0,0,0,"0","0",Nessuna,Nessuna,Ottima, ,"20095047",Oristano,1998/07/26 00:00:00, ,"1965",R. Viola,10781.4922861,{0CF37167-2AA5-48BE-B00C-8451C0495540},,10741.4074549854,25195.1767757434
"95004",Ales,8.81584466,39.76922741,"34039","33983","3",Collegamento sponde del fiume, , ,"0",,"0",0,"0","0","0",No,Nessuna informazione,0,0,0,"0","0",Nessuna,Nessuna,Non verificato, ,"20095065",Oristano,1998/07/26 00:00:00, ,"1965",M. Laurieri,17.56146837,{D107C254-5E30-42AB-AE85-C55E3DD1A8CD},,17.4959778199326,22030.6376934284
"95005",Allai,8.85951425,39.95793491,"20070","20030","2",Opere Portuali, , ,"0",,"0",0,"0","0","0",No,Nessuna informazione,0,0,0,"0","0",Nessuna,Nessuna,Ottima, ,"20095047",Oristano,1998/07/26 00:00:00, ,"1965",R. Viola,10781.4922861,{0CF37167-2AA5-48BE-B00C-8451C0495540},,10741.4074549854,25771.4862402252
"95006",Arborea,8.58218011,39.77345146,"4470","4360","1",Bassa,Rocciosa, ,"0",,"0",0,"0","0","0",Si,Nessuna informazione,0,0,0,"0","0",Nessuna,Litologia,Non verificato, ,"20095006",Oristano,1998/07/26 00:00:00, ,"1965",R. Viola,3807.3866442,{48BC13FB-C5A3-4629-9DB8-BE769570337E},,3793.11619465668,2419.20302940137
"95007",Ardauli,8.91123069,40.08728814,"7289","7064","1",Bassa,Rocciosa, ,"0",,"0",0,"0","0","0",Si,Nessuna informazione,0,0,0,"0","0",Nessuna,Nessuna,Ottima, ,"20095019",Is Arenas,1998/05/11 00:00:00, ,"1958",R. Viola,360.25531499,{E64AD84D-6175-480F-9270-28E64FAB1463},,358.901428461312,34655.8328754309
"95008",Assolo,8.915627,39.81074085,"20070","20030","2",Opere Portuali, , ,"0",,"0",0,"0","0","0",No,Nessuna informazione,0,0,0,"0","0",Nessuna,Nessuna,Ottima, ,"20095047",Oristano,1998/07/26 00:00:00, ,"1965",R. Viola,10781.4922861,{0CF37167-2AA5-48BE-B00C-8451C0495540},,10741.4074549854,29096.2101015095
"95009",Asuni,8.94773504,39.87191568,"20070","20030","2",Opere Portuali, , ,"0",,"0",0,"0","0","0",No,Nessuna informazione,0,0,0,"0","0",Nessuna,Nessuna,Ottima, ,"20095047",Oristano,1998/07/26 00:00:00, ,"1965",R. Viola,10781.4922861,{0CF37167-2AA5-48BE-B00C-8451C0495540},,10741.4074549854,31255.1844599234
"95010",Baradili,8.89760286,39.72251033,"34163","35381","3",Sponde del fiume, , ,"0",,"0",0,"0","0","0",No,Nessuna informazione,0,0,0,"0","0",Nessuna,Nessuna,Non verificato, ,"20095065",Oristano,1998/05/09 00:00:00, ,"1965",M. Laurieri,708.54426017,{B7EFE0C5-C207-4D1C-9002-86C911ACD3D6},,705.901655328619,27863.5643522501
"95011",Baratili San Pietro,8.55496644,39.99330353,"35249","35367","3",Sponde del fiume, , ,"0",,"0",0,"0","0","0",No,Nessuna informazione,0,0,0,"0","0",Nessuna,Nessuna,Non verificato, ,"20095018",Oristano,1998/07/26 00:00:00, ,"1965",R. Viola,1903.54549685,{ACC4898D-0E76-4FFA-AEB4-690E78392CE4},,1896.35387831511,8726.25974644163
"95012",Baressa,8.87404906,39.71468132,"34163","35381","3",Sponde del fiume, , ,"0",,"0",0,"0","0","0",No,Nessuna informazione,0,0,0,"0","0",Nessuna,Nessuna,Non verificato, ,"20095065",Oristano,1998/05/09 00:00:00, ,"1965",M. Laurieri,708.54426017,{B7EFE0C5-C207-4D1C-9002-86C911ACD3D6},,705.901655328619,25770.9651137517
"95013",Bauladu,8.67136806,40.01968427,"15013","14906","1",Bassa,Sabbiosa, ,"0",,"0",0,"0","0","0",Si,Stabilità,0,0,0,"0","0",Nessuna,Nessuna,Non verificato, ,"20095019",Is Arenas,1998/05/11 00:00:00, ,"1958",R. Viola,837.89308734,{3AB2EF4E-0FE1-4CBD-8030-2C5CB10A637F},,834.737789985318,15900.8345740666
"95014",Bidonì,8.9351206,40.11300422,"7289","7064","1",Bassa,Rocciosa, ,"0",,"0",0,"0","0","0",Si,Nessuna informazione,0,0,0,"0","0",Nessuna,Nessuna,Ottima, ,"20095019",Is Arenas,1998/05/11 00:00:00, ,"1958",R. Viola,360.25531499,{E64AD84D-6175-480F-9270-28E64FAB1463},,358.901428461312,36790.3191346205
"95015",Bonarcado,8.65453282,40.10082014,"7289","7064","1",Bassa,Rocciosa, ,"0",,"0",0,"0","0","0",Si,Nessuna informazione,0,0,0,"0","0",Nessuna,Nessuna,Ottima, ,"20095019",Is Arenas,1998/05/11 00:00:00, ,"1958",R. Viola,360.25531499,{E64AD84D-6175-480F-9270-28E64FAB1463},,358.901428461312,12849.8680778381
"95016",Boroneddu,8.86988195,40.11273716,"7289","7064","1",Bassa,Rocciosa, ,"0",,"0",0,"0","0","0",Si,Nessuna informazione,0,0,0,"0","0",Nessuna,Nessuna,Ottima, ,"20095019",Is Arenas,1998/05/11 00:00:00, ,"1958",R. Viola,360.25531499,{E64AD84D-6175-480F-9270-28E64FAB1463},,358.901428461312,31245.8561988842
"95017",Busachi,8.89807635,40.03328904,"20070","20030","2",Opere Portuali, , ,"0",,"0",0,"0","0","0",No,Nessuna informazione,0,0,0,"0","0",Nessuna,Nessuna,Ottima, ,"20095047",Oristano,1998/07/26 00:00:00, ,"1965",R. Viola,10781.4922861,{0CF37167-2AA5-48BE-B00C-8451C0495540},,10741.4074549854,32639.8821681706
"95018",Cabras,8.53119235,39.92991246,"16349","16186","1",Bassa,Sabbiosa, ,"0",,"0",0,"0","0","0",Si,Stabilità,0,0,0,"0","0",Nessuna,Nessuna,Non verificato, ,"20095038",Oristano,1998/07/26 00:00:00, ,"1965",R. Viola,2850.35855862,{600BA9DE-CA2B-4232-861B-8C1C5145B93F},,2839.66762969326,1972.63916094372
"95019",Cuglieri,8.5682177,40.18978261,"2083","1994","1",Alta,Rocciosa, ,"0",,"0",0,"0","0","0",Si,Nessuna informazione,0,0,0,"0","0",Nessuna,Nessuna,Non verificato, ,"20095067",Bosa,1998/05/11 00:00:00, ,"1958",R. Viola,297.5422053,{22B4B88C-9360-49DC-887C-B6EB90E74A1B},,296.419471607587,7609.78139753143
"95020",Fordongianus,8.8079653,39.99491588,"20070","20030","2",Opere Portuali, , ,"0",,"0",0,"0","0","0",No,Nessuna informazione,0,0,0,"0","0",Nessuna,Nessuna,Ottima, ,"20095047",Oristano,1998/07/26 00:00:00, ,"1965",R. Viola,10781.4922861,{0CF37167-2AA5-48BE-B00C-8451C0495540},,10741.4074549854,23890.3818947716
"95021",Ghilarza,8.8346932,40.1214624,"9875","9729","1",Bassa,Sabbiosa, ,"0",,"0",0,"0","0","0",Si,Erosione,510.24,23338.98,50.74,"76","0",Nessuna,Nessuna,Non verificato, ,"20095019",Is Arenas,1998/05/11 00:00:00, ,"1958",R. Viola,392.67376837,{C7A243E2-EE78-4F79-8BE1-C43AADC8860A},,391.198035149061,28360.2933974415
"95022",Gonnoscodina,8.83584438,39.70069319,"34163","35381","3",Sponde del fiume, , ,"0",,"0",0,"0","0","0",No,Nessuna informazione,0,0,0,"0","0",Nessuna,Nessuna,Non verificato, ,"20095065",Oristano,1998/05/09 00:00:00, ,"1965",M. Laurieri,708.54426017,{B7EFE0C5-C207-4D1C-9002-86C911ACD3D6},,705.901655328619,22414.3935796702
"95023",Gonnosnò,8.87190545,39.76003369,"27644","27562","3",Collegamento opera, , ,"0",,"0",0,"0","0","0",No,Nessuna informazione,0,0,0,"0","0",Nessuna,Nessuna,Non verificato, ,"20095065",Oristano,1998/07/26 00:00:00, ,"1965",M. Laurieri,557.1052988,{E44326C6-2BBF-4193-A68C-3730E274267B},,555.027208269833,26413.7440435513
"95024",Gonnostramatza,8.83143099,39.68010941,"34038","33982","3",Collegamento sponde del fiume, , ,"0",,"0",0,"0","0","0",No,Nessuna informazione,0,0,0,"0","0",Nessuna,Nessuna,Non verificato, ,"20095065",Oristano,1998/05/09 00:00:00, ,"1965",M. Laurieri,35.46855653,{B806E46F-242B-4119-AC6D-1A3C7112EA61},,35.3364796084131,22082.7954610333
"95025",Marrubiu,8.63626196,39.74888134,"34039","33983","3",Collegamento sponde del fiume, , ,"0",,"0",0,"0","0","0",No,Nessuna informazione,0,0,0,"0","0",Nessuna,Nessuna,Non verificato, ,"20095065",Oristano,1998/07/26 00:00:00, ,"1965",M. Laurieri,17.56146837,{D107C254-5E30-42AB-AE85-C55E3DD1A8CD},,17.4959778199326,7067.51713860757
"95026",Masullas,8.77925361,39.70146376,"34163","35381","3",Sponde del fiume, , ,"0",,"0",0,"0","0","0",No,Nessuna informazione,0,0,0,"0","0",Nessuna,Nessuna,Non verificato, ,"20095065",Oristano,1998/05/09 00:00:00, ,"1965",M. Laurieri,708.54426017,{B7EFE0C5-C207-4D1C-9002-86C911ACD3D6},,705.901655328619,17568.2043166795
"95027",Milis,8.6371819,40.04930783,"7289","7064","1",Bassa,Rocciosa, ,"0",,"0",0,"0","0","0",Si,Nessuna informazione,0,0,0,"0","0",Nessuna,Nessuna,Ottima, ,"20095019",Is Arenas,1998/05/11 00:00:00, ,"1958",R. Viola,360.25531499,{E64AD84D-6175-480F-9270-28E64FAB1463},,358.901428461312,11988.8210833567
"95028",Mogorella,8.8582652,39.8631237,"20070","20030","2",Opere Portuali, , ,"0",,"0",0,"0","0","0",No,Nessuna informazione,0,0,0,"0","0",Nessuna,Nessuna,Ottima, ,"20095047",Oristano,1998/07/26 00:00:00, ,"1965",R. Viola,10781.4922861,{0CF37167-2AA5-48BE-B00C-8451C0495540},,10741.4074549854,23594.5674546271
"95029",Mogoro,8.77457552,39.68410563,"34038","33982","3",Collegamento sponde del fiume, , ,"0",,"0",0,"0","0","0",No,Nessuna informazione,0,0,0,"0","0",Nessuna,Nessuna,Non verificato, ,"20095065",Oristano,1998/05/09 00:00:00, ,"1965",M. Laurieri,35.46855653,{B806E46F-242B-4119-AC6D-1A3C7112EA61},,35.3364796084131,17188.7379243695
"95030",Morgongiori,8.76772542,39.74615282,"27644","27562","3",Collegamento opera, , ,"0",,"0",0,"0","0","0",No,Nessuna informazione,0,0,0,"0","0",Nessuna,Nessuna,Non verificato, ,"20095065",Oristano,1998/07/26 00:00:00, ,"1965",M. Laurieri,557.1052988,{E44326C6-2BBF-4193-A68C-3730E274267B},,555.027208269833,17369.9702634813
"95031",Narbolia,8.57500076,40.04770998,"7048","6823","1",Bassa,Rocciosa, ,"0",,"0",0,"0","0","0",Si,Nessuna informazione,0,0,0,"0","0",Nessuna,Nessuna,Non verificato, ,"20095019",Is Arenas,1998/05/11 00:00:00, ,"1958",R. Viola,1385.69411677,{274299EF-3605-4594-B769-9BA625755EB3},,1380.48236807752,7130.06975365353
"95032",Neoneli,8.94401269,40.06150392,"7289","7064","1",Bassa,Rocciosa, ,"0",,"0",0,"0","0","0",Si,Nessuna informazione,0,0,0,"0","0",Nessuna,Nessuna,Ottima, ,"20095019",Is Arenas,1998/05/11 00:00:00, ,"1958",R. Viola,360.25531499,{E64AD84D-6175-480F-9270-28E64FAB1463},,358.901428461312,37564.67595546
"95033",Norbello,8.83225005,40.13395535,"9875","9729","1",Bassa,Sabbiosa, ,"0",,"0",0,"0","0","0",Si,Erosione,510.24,23338.98,50.74,"76","0",Nessuna,Nessuna,Non verificato, ,"20095019",Is Arenas,1998/05/11 00:00:00, ,"1958",R. Viola,392.67376837,{C7A243E2-EE78-4F79-8BE1-C43AADC8860A},,391.198035149061,28282.2698521316
"95034",Nughedu Santa Vittoria,8.95429692,40.10206996,"7289","7064","1",Bassa,Rocciosa, ,"0",,"0",0,"0","0","0",Si,Nessuna informazione,0,0,0,"0","0",Nessuna,Nessuna,Ottima, ,"20095019",Is Arenas,1998/05/11 00:00:00, ,"1958",R. Viola,360.25531499,{E64AD84D-6175-480F-9270-28E64FAB1463},,358.901428461312,38354.8284310537
"95035",Nurachi,8.53991438,39.97379024,"35249","35367","3",Sponde del fiume, , ,"0",,"0",0,"0","0","0",No,Nessuna informazione,0,0,0,"0","0",Nessuna,Nessuna,Non verificato, ,"20095018",Oristano,1998/07/26 00:00:00, ,"1965",R. Viola,1903.54549685,{ACC4898D-0E76-4FFA-AEB4-690E78392CE4},,1896.35387831511,6208.44720471083
"95036",Nureci,8.97397217,39.82410064,"20070","20030","2",Opere Portuali, , ,"0",,"0",0,"0","0","0",No,Nessuna informazione,0,0,0,"0","0",Nessuna,Nessuna,Ottima, ,"20095047",Oristano,1998/07/26 00:00:00, ,"1965",R. Viola,10781.4922861,{0CF37167-2AA5-48BE-B00C-8451C0495540},,10741.4074549854,33788.2084358264
"95037",Ollastra,8.7346681,39.95122575,"20070","20030","2",Opere Portuali, , ,"0",,"0",0,"0","0","0",No,Nessuna informazione,0,0,0,"0","0",Nessuna,Nessuna,Ottima, ,"20095047",Oristano,1998/07/26 00:00:00, ,"1965",R. Viola,10781.4922861,{0CF37167-2AA5-48BE-B00C-8451C0495540},,10741.4074549854,15981.7507429107
"95038",Oristano,8.59118315,39.90381075,"35252","35370","3",Sponde del fiume, , ,"0",,"0",0,"0","0","0",No,Nessuna informazione,0,0,0,"0","0",Nessuna,Nessuna,Non verificato, ,"20095038",Oristano,1998/07/26 00:00:00, ,"1965",R. Viola,261.33810181,{46B1F861-8889-405B-85EB-828A9A8F4CE9},,260.366545197337,3253.89789254584
"95039",Palmas Arborea,8.64568223,39.87599627,"20070","20030","2",Opere Portuali, , ,"0",,"0",0,"0","0","0",No,Nessuna informazione,0,0,0,"0","0",Nessuna,Nessuna,Ottima, ,"20095047",Oristano,1998/07/26 00:00:00, ,"1965",R. Viola,10781.4922861,{0CF37167-2AA5-48BE-B00C-8451C0495540},,10741.4074549854,5558.31956664794
"95040",Pau,8.80309813,39.79271818,"20070","20030","2",Opere Portuali, , ,"0",,"0",0,"0","0","0",No,Nessuna informazione,0,0,0,"0","0",Nessuna,Nessuna,Ottima, ,"20095047",Oristano,1998/07/26 00:00:00, ,"1965",R. Viola,10781.4922861,{0CF37167-2AA5-48BE-B00C-8451C0495540},,10741.4074549854,20407.7155912713
"95041",Paulilatino,8.76049414,40.08656495,"7289","7064","1",Bassa,Rocciosa, ,"0",,"0",0,"0","0","0",Si,Nessuna informazione,0,0,0,"0","0",Nessuna,Nessuna,Ottima, ,"20095019",Is Arenas,1998/05/11 00:00:00, ,"1958",R. Viola,360.25531499,{E64AD84D-6175-480F-9270-28E64FAB1463},,358.901428461312,21806.0655899452
"95042",Pompu,8.79571898,39.72488017,"34038","33982","3",Collegamento sponde del fiume, , ,"0",,"0",0,"0","0","0",No,Nessuna informazione,0,0,0,"0","0",Nessuna,Nessuna,Non verificato, ,"20095065",Oristano,1998/05/09 00:00:00, ,"1965",M. Laurieri,35.46855653,{B806E46F-242B-4119-AC6D-1A3C7112EA61},,35.3364796084131,19245.5300040045
"95043",Riola Sardo,8.53847299,39.99654532,"16354","16191","1",Bassa,Sabbiosa, ,"0",,"0",0,"0","0","0",Si,Stabilità,0,0,0,"0","0",Nessuna,Nessuna,Non verificato, ,"20095050",Is Arenas,1998/05/11 00:00:00, ,"1958",R. Viola,1713.08454893,{BCD44A51-DBEF-4E76-B4E5-553AACDE8B5C},,1706.58579225859,8303.03803865549
"95044",Ruinas,8.89641753,39.90577058,"20070","20030","2",Opere Portuali, , ,"0",,"0",0,"0","0","0",No,Nessuna informazione,0,0,0,"0","0",Nessuna,Nessuna,Ottima, ,"20095047",Oristano,1998/07/26 00:00:00, ,"1965",R. Viola,10781.4922861,{0CF37167-2AA5-48BE-B00C-8451C0495540},,10741.4074549854,27236.3089929472
"95045",Samugheo,8.93960557,39.94719111,"20070","20030","2",Opere Portuali, , ,"0",,"0",0,"0","0","0",No,Nessuna informazione,0,0,0,"0","0",Nessuna,Nessuna,Ottima, ,"20095047",Oristano,1998/07/26 00:00:00, ,"1965",R. Viola,10781.4922861,{0CF37167-2AA5-48BE-B00C-8451C0495540},,10741.4074549854,31858.1923145534
"95046",San Nicolò d'Arcidano,8.64669205,39.68528787,"34038","33982","3",Collegamento sponde del fiume, , ,"0",,"0",0,"0","0","0",No,Nessuna informazione,0,0,0,"0","0",Nessuna,Nessuna,Non verificato, ,"20095065",Oristano,1998/05/09 00:00:00, ,"1965",M. Laurieri,35.46855653,{B806E46F-242B-4119-AC6D-1A3C7112EA61},,35.3364796084131,6255.52030263526
"95047",Santa Giusta,8.60863024,39.87845035,"20070","20030","2",Opere Portuali, , ,"0",,"0",0,"0","0","0",No,Nessuna informazione,0,0,0,"0","0",Nessuna,Nessuna,Ottima, ,"20095047",Oristano,1998/07/26 00:00:00, ,"1965",R. Viola,10781.4922861,{0CF37167-2AA5-48BE-B00C-8451C0495540},,10741.4074549854,2586.46072801648
"95048",Villa Sant'Antonio,8.9012847,39.85815513,"20070","20030","2",Opere Portuali, , ,"0",,"0",0,"0","0","0",No,Nessuna informazione,0,0,0,"0","0",Nessuna,Nessuna,Ottima, ,"20095047",Oristano,1998/07/26 00:00:00, ,"1965",R. Viola,10781.4922861,{0CF37167-2AA5-48BE-B00C-8451C0495540},,10741.4074549854,27283.5602190725
"95049",Santu Lussurgiu,8.65196647,40.13731299,"9875","9729","1",Bassa,Sabbiosa, ,"0",,"0",0,"0","0","0",Si,Erosione,510.24,23338.98,50.74,"76","0",Nessuna,Nessuna,Non verificato, ,"20095019",Is Arenas,1998/05/11 00:00:00, ,"1958",R. Viola,392.67376837,{C7A243E2-EE78-4F79-8BE1-C43AADC8860A},,391.198035149061,13235.5846809606
"95050",San Vero Milis,8.59915025,40.0127927,"15013","14906","1",Bassa,Sabbiosa, ,"0",,"0",0,"0","0","0",Si,Stabilità,0,0,0,"0","0",Nessuna,Nessuna,Non verificato, ,"20095019",Is Arenas,1998/05/11 00:00:00, ,"1958",R. Viola,837.89308734,{3AB2EF4E-0FE1-4CBD-8030-2C5CB10A637F},,834.737789985318,10958.5988447902
"95051",Scano di Montiferro,8.58351845,40.21682334,"10108","9966","1",Bassa,Sabbiosa, ,"0",,"0",0,"0","0","0",Si,Erosione,799.1,9564,16.97,"36","0",Nessuna,Nessuna,Non verificato, ,"20095067",Bosa,1998/05/12 00:00:00, ,"1958",R. Viola,789.03190353,{9005751B-8512-492F-AD4D-C9314F524EB4},,786.065384180023,8760.59189104037
"95052",Sedilo,8.92091693,40.17485387,"9875","9729","1",Bassa,Sabbiosa, ,"0",,"0",0,"0","0","0",Si,Erosione,510.24,23338.98,50.74,"76","0",Nessuna,Nessuna,Non verificato, ,"20095019",Is Arenas,1998/05/11 00:00:00, ,"1958",R. Viola,392.67376837,{C7A243E2-EE78-4F79-8BE1-C43AADC8860A},,391.198035149061,36487.9366253328
"95053",Seneghe,8.61146801,40.08064293,"7289","7064","1",Bassa,Rocciosa, ,"0",,"0",0,"0","0","0",Si,Nessuna informazione,0,0,0,"0","0",Nessuna,Nessuna,Ottima, ,"20095019",Is Arenas,1998/05/11 00:00:00, ,"1958",R. Viola,360.25531499,{E64AD84D-6175-480F-9270-28E64FAB1463},,358.901428461312,9128.75204404544
"95054",Senis,8.93954859,39.82163704,"20070","20030","2",Opere Portuali, , ,"0",,"0",0,"0","0","0",No,Nessuna informazione,0,0,0,"0","0",Nessuna,Nessuna,Ottima, ,"20095047",Oristano,1998/07/26 00:00:00, ,"1965",R. Viola,10781.4922861,{0CF37167-2AA5-48BE-B00C-8451C0495540},,10741.4074549854,30906.6726773123
"95055",Sennariolo,8.55628704,40.21243637,"2083","1994","1",Alta,Rocciosa, ,"0",,"0",0,"0","0","0",Si,Nessuna informazione,0,0,0,"0","0",Nessuna,Nessuna,Non verificato, ,"20095067",Bosa,1998/05/11 00:00:00, ,"1958",R. Viola,297.5422053,{22B4B88C-9360-49DC-887C-B6EB90E74A1B},,296.419471607587,6660.09641612391
"95056",Siamaggiore,8.63615437,39.94874157,"35253","35371","3",Sponde del fiume, , ,"0",,"0",0,"0","0","0",No,Nessuna informazione,0,0,0,"0","0",Nessuna,Nessuna,Non verificato, ,"20095038",Oristano,1998/07/26 00:00:00, ,"1965",R. Viola,1029.07572572,{270BD333-FF71-447A-BDC4-E2EF7A2A3F85},,1025.24475851206,9456.62562380021
"95057",Siamanna,8.75961834,39.92019454,"20070","20030","2",Opere Portuali, , ,"0",,"0",0,"0","0","0",No,Nessuna informazione,0,0,0,"0","0",Nessuna,Nessuna,Ottima, ,"20095047",Oristano,1998/07/26 00:00:00, ,"1965",R. Viola,10781.4922861,{0CF37167-2AA5-48BE-B00C-8451C0495540},,10741.4074549854,16297.7858903399
"95058",Simala,8.82962503,39.71928821,"34163","35381","3",Sponde del fiume, , ,"0",,"0",0,"0","0","0",No,Nessuna informazione,0,0,0,"0","0",Nessuna,Nessuna,Non verificato, ,"20095065",Oristano,1998/05/09 00:00:00, ,"1965",M. Laurieri,708.54426017,{B7EFE0C5-C207-4D1C-9002-86C911ACD3D6},,705.901655328619,22034.6158177895
"95059",Simaxis,8.69090471,39.930337,"20070","20030","2",Opere Portuali, , ,"0",,"0",0,"0","0","0",No,Nessuna informazione,0,0,0,"0","0",Nessuna,Nessuna,Ottima, ,"20095047",Oristano,1998/07/26 00:00:00, ,"1965",R. Viola,10781.4922861,{0CF37167-2AA5-48BE-B00C-8451C0495540},,10741.4074549854,11589.0704164091
"95060",Sini,8.90636308,39.75247187,"34038","33982","3",Collegamento sponde del fiume, , ,"0",,"0",0,"0","0","0",No,Nessuna informazione,0,0,0,"0","0",Nessuna,Nessuna,Non verificato, ,"20095065",Oristano,1998/05/09 00:00:00, ,"1965",M. Laurieri,35.46855653,{B806E46F-242B-4119-AC6D-1A3C7112EA61},,35.3364796084131,29136.6942236135
"95061",Siris,8.7748754,39.71281218,"34163","35381","3",Sponde del fiume, , ,"0",,"0",0,"0","0","0",No,Nessuna informazione,0,0,0,"0","0",Nessuna,Nessuna,Non verificato, ,"20095065",Oristano,1998/05/09 00:00:00, ,"1965",M. Laurieri,708.54426017,{B7EFE0C5-C207-4D1C-9002-86C911ACD3D6},,705.901655328619,17289.9903642739
"95062",Solarussa,8.67075837,39.95315767,"20070","20030","2",Opere Portuali, , ,"0",,"0",0,"0","0","0",No,Nessuna informazione,0,0,0,"0","0",Nessuna,Nessuna,Ottima, ,"20095047",Oristano,1998/07/26 00:00:00, ,"1965",R. Viola,10781.4922861,{0CF37167-2AA5-48BE-B00C-8451C0495540},,10741.4074549854,11981.8189243223
"95063",Sorradile,8.93276947,40.10664792,"7289","7064","1",Bassa,Rocciosa, ,"0",,"0",0,"0","0","0",Si,Nessuna informazione,0,0,0,"0","0",Nessuna,Nessuna,Ottima, ,"20095019",Is Arenas,1998/05/11 00:00:00, ,"1958",R. Viola,360.25531499,{E64AD84D-6175-480F-9270-28E64FAB1463},,358.901428461312,36545.4444407127
"95064",Tadasuni,8.88260572,40.11069858,"7289","7064","1",Bassa,Rocciosa, ,"0",,"0",0,"0","0","0",Si,Nessuna informazione,0,0,0,"0","0",Nessuna,Nessuna,Ottima, ,"20095019",Is Arenas,1998/05/11 00:00:00, ,"1958",R. Viola,360.25531499,{E64AD84D-6175-480F-9270-28E64FAB1463},,358.901428461312,32308.3492723271
"95065",Terralba,8.63618393,39.72020036,"27644","27562","3",Collegamento opera, , ,"0",,"0",0,"0","0","0",No,Nessuna informazione,0,0,0,"0","0",Nessuna,Nessuna,Non verificato, ,"20095065",Oristano,1998/07/26 00:00:00, ,"1965",M. Laurieri,557.1052988,{E44326C6-2BBF-4193-A68C-3730E274267B},,555.027208269833,5738.26849104446
"95066",Tramatza,8.64862429,40.00288031,"16349","16186","1",Bassa,Sabbiosa, ,"0",,"0",0,"0","0","0",Si,Stabilità,0,0,0,"0","0",Nessuna,Nessuna,Non verificato, ,"20095038",Oristano,1998/07/26 00:00:00, ,"1965",R. Viola,2850.35855862,{600BA9DE-CA2B-4232-861B-8C1C5145B93F},,2839.66762969326,14352.5045304301
"95067",Tresnuraghes,8.51882002,40.25092504,"1909","1810","1",Alta,Rocciosa, ,"0",,"0",0,"0","0","0",Si,Nessuna informazione,0,0,0,"0","0",Nessuna,Nessuna,Non verificato, ,"20091045",Bosa,1998/05/12 00:00:00, ,"1958",R. Viola,634.62034578,{81B85D2E-A134-4C8A-AE61-C725DD63EA7C},,632.237926745756,2529.95208912988
"95068",Ulà Tirso,8.90542873,40.04502134,"20070","20030","2",Opere Portuali, , ,"0",,"0",0,"0","0","0",No,Nessuna informazione,0,0,0,"0","0",Nessuna,Nessuna,Ottima, ,"20095047",Oristano,1998/07/26 00:00:00, ,"1965",R. Viola,10781.4922861,{0CF37167-2AA5-48BE-B00C-8451C0495540},,10741.4074549854,33892.5870134273
"95069",Uras,8.70107597,39.69835218,"34163","35381","3",Sponde del fiume, , ,"0",,"0",0,"0","0","0",No,Nessuna informazione,0,0,0,"0","0",Nessuna,Nessuna,Non verificato, ,"20095065",Oristano,1998/05/09 00:00:00, ,"1965",M. Laurieri,708.54426017,{B7EFE0C5-C207-4D1C-9002-86C911ACD3D6},,705.901655328619,10857.6473452511
"95070",Usellus,8.85263281,39.80828003,"20070","20030","2",Opere Portuali, , ,"0",,"0",0,"0","0","0",No,Nessuna informazione,0,0,0,"0","0",Nessuna,Nessuna,Ottima, ,"20095047",Oristano,1998/07/26 00:00:00, ,"1965",R. Viola,10781.4922861,{0CF37167-2AA5-48BE-B00C-8451C0495540},,10741.4074549854,23899.2584315724
"95071",Villanova Truschedu,8.75256917,39.98959369,"20070","20030","2",Opere Portuali, , ,"0",,"0",0,"0","0","0",No,Nessuna informazione,0,0,0,"0","0",Nessuna,Nessuna,Ottima, ,"20095047",Oristano,1998/07/26 00:00:00, ,"1965",R. Viola,10781.4922861,{0CF37167-2AA5-48BE-B00C-8451C0495540},,10741.4074549854,19795.8933619415
"95072",Villaurbana,8.77810331,39.88618034,"20070","20030","2",Opere Portuali, , ,"0",,"0",0,"0","0","0",No,Nessuna informazione,0,0,0,"0","0",Nessuna,Nessuna,Ottima, ,"20095047",Oristano,1998/07/26 00:00:00, ,"1965",R. Viola,10781.4922861,{0CF37167-2AA5-48BE-B00C-8451C0495540},,10741.4074549854,16906.811076174
"95073",Villa Verde,8.82102064,39.79603586,"20070","20030","2",Opere Portuali, , ,"0",,"0",0,"0","0","0",No,Nessuna informazione,0,0,0,"0","0",Nessuna,Nessuna,Ottima, ,"20095047",Oristano,1998/07/26 00:00:00, ,"1965",R. Viola,10781.4922861,{0CF37167-2AA5-48BE-B00C-8451C0495540},,10741.4074549854,21709.7659790309
"95074",Zeddiani,8.59548717,39.98957536,"16349","16186","1",Bassa,Sabbiosa, ,"0",,"0",0,"0","0","0",Si,Stabilità,0,0,0,"0","0",Nessuna,Nessuna,Non verificato, ,"20095038",Oristano,1998/07/26 00:00:00, ,"1965",R. Viola,2850.35855862,{600BA9DE-CA2B-4232-861B-8C1C5145B93F},,2839.66762969326,10429.4786923774
"95075",Zerfaliu,8.70754907,39.9580167,"20070","20030","2",Opere Portuali, , ,"0",,"0",0,"0","0","0",No,Nessuna informazione,0,0,0,"0","0",Nessuna,Nessuna,Ottima, ,"20095047",Oristano,1998/07/26 00:00:00, ,"1965",R. Viola,10781.4922861,{0CF37167-2AA5-48BE-B00C-8451C0495540},,10741.4074549854,14594.9460100613
"95076",Siapiccia,8.76176243,39.92642793,"20070","20030","2",Opere Portuali, , ,"0",,"0",0,"0","0","0",No,Nessuna informazione,0,0,0,"0","0",Nessuna,Nessuna,Ottima, ,"20095047",Oristano,1998/07/26 00:00:00, ,"1965",R. Viola,10781.4922861,{0CF37167-2AA5-48BE-B00C-8451C0495540},,10741.4074549854,16718.1084658374
"95077",Curcuris,8.83141321,39.74636188,"27644","27562","3",Collegamento opera, , ,"0",,"0",0,"0","0","0",No,Nessuna informazione,0,0,0,"0","0",Nessuna,Nessuna,Non verificato, ,"20095065",Oristano,1998/07/26 00:00:00, ,"1965",M. Laurieri,557.1052988,{E44326C6-2BBF-4193-A68C-3730E274267B},,555.027208269833,22714.0874455544
"95078",Soddì,8.87719316,40.12902116,"9875","9729","1",Bassa,Sabbiosa, ,"0",,"0",0,"0","0","0",Si,Erosione,510.24,23338.98,50.74,"76","0",Nessuna,Nessuna,Non verificato, ,"20095019",Is Arenas,1998/05/11 00:00:00, ,"1958",R. Viola,392.67376837,{C7A243E2-EE78-4F79-8BE1-C43AADC8860A},,391.198035149061,32035.7330075192
"95079",Bosa,8.49783022,40.29914877,"33438","33340","3",Sponde del fiume, , ,"0",,"0",0,"0","0","0",No,Nessuna informazione,0,0,0,"0","0",Nessuna,Nessuna,Non verificato, ,"20091013",Bosa,1998/05/12 00:00:00, ,"1958",R. Viola,412.42836781,{BDD2535F-3DAA-4322-B951-2BD128286995},,410.883561401166,266.780857451871
"95080",Flussio,8.54151996,40.26709307,"34084","34037","3",Collegamento sponde del fiume, , ,"0",,"0",0,"0","0","0",No,Nessuna informazione,0,0,0,"0","0",Nessuna,Nessuna,Non verificato, ,"20091013",Bosa,1998/05/12 00:00:00, ,"1958",R. Viola,13.33705856,{C8E60AAF-E070-4BC2-A84F-C6350303ED0B},,13.2871614131999,3736.02203390179
"95082",Laconi,9.05223689,39.8539383,"20070","20030","2",Opere Portuali, , ,"0",,"0",0,"0","0","0",No,Nessuna informazione,0,0,0,"0","0",Nessuna,Nessuna,Ottima, ,"20095047",Oristano,1998/07/26 00:00:00, ,"1965",R. Viola,10781.4922861,{0CF37167-2AA5-48BE-B00C-8451C0495540},,10741.4074549854,40204.0247098897
"95083",Magomadas,8.52539906,40.26420338,"33675","33574","3",Sponde del fiume, , ,"0",,"0",0,"0","0","0",No,Nessuna informazione,0,0,0,"0","0",Nessuna,Nessuna,Non verificato, ,"20091013",Bosa,1998/05/12 00:00:00, ,"1958",R. Viola,213.59819778,{F4F8E705-D85E-47C9-86B0-7CB2FFC1C37A},,212.798309183609,2457.86694753359
"95084",Modolo,8.52782133,40.27408198,"33675","33574","3",Sponde del fiume, , ,"0",,"0",0,"0","0","0",No,Nessuna informazione,0,0,0,"0","0",Nessuna,Nessuna,Non verificato, ,"20091013",Bosa,1998/05/12 00:00:00, ,"1958",R. Viola,213.59819778,{F4F8E705-D85E-47C9-86B0-7CB2FFC1C37A},,212.798309183609,2540.88414600582
"95085",Montresta,8.49987434,40.3737132,"2380","2300","1",Alta,Rocciosa, ,"0",,"0",0,"0","0","0",Si,Nessuna informazione,0,0,0,"0","0",Nessuna,Nessuna,Non verificato, ,"20091013",Bosa,1998/05/12 00:00:00, ,"1958",R. Viola,977.22611128,{C942AC55-589F-4EEC-BF66-2E7418392524},,973.541945123821,5950.2042540311
"95086",Sagama,8.5780936,40.26099005,"34084","34037","3",Collegamento sponde del fiume, , ,"0",,"0",0,"0","0","0",No,Nessuna informazione,0,0,0,"0","0",Nessuna,Nessuna,Non verificato, ,"20091013",Bosa,1998/05/12 00:00:00, ,"1958",R. Viola,13.33705856,{C8E60AAF-E070-4BC2-A84F-C6350303ED0B},,13.2871614131999,6912.98433232735
"95087",Suni,8.55027974,40.27974185,"34084","34037","3",Collegamento sponde del fiume, , ,"0",,"0",0,"0","0","0",No,Nessuna informazione,0,0,0,"0","0",Nessuna,Nessuna,Non verificato, ,"20091013",Bosa,1998/05/12 00:00:00, ,"1958",R. Viola,13.33705856,{C8E60AAF-E070-4BC2-A84F-C6350303ED0B},,13.2871614131999,4500.45054716671
"95088",Tinnura,8.54820696,40.26924954,"33675","33574","3",Sponde del fiume, , ,"0",,"0",0,"0","0","0",No,Nessuna informazione,0,0,0,"0","0",Nessuna,Nessuna,Non verificato, ,"20091013",Bosa,1998/05/12 00:00:00, ,"1958",R. Viola,213.59819778,{F4F8E705-D85E-47C9-86B0-7CB2FFC1C37A},,212.798309183609,4278.76913445163
"111001",Arbus,8.60021437,39.52888068,"32732","32667","3",Collegamento sponde del fiume, , ,"0",,"0",0,"0","0","0",No,Nessuna informazione,0,0,0,"0","0",Nessuna,Nessuna,Non verificato, ,"20092001",Costa Verde,1998/05/09 00:00:00, ,"1965",R. Viola,64.63716657,{F5BD8594-08C2-4821-A86D-8378B20CD5F4},,64.3881187156132,11184.0666005452
"111002",Armungia,9.38020135,39.52145507,"34219","34103","3",Collegamento sponde del fiume, , ,"0",,"0",0,"0","0","0",No,Nessuna informazione,0,0,0,"0","0",Nessuna,Nessuna,Non verificato, ,"20092097",Quirra,1998/05/09 00:00:00, ,"1961",R. Viola,27.8850656,{4BC3203D-5FF2-4EE4-8C69-F392A7AA9007},,27.8128078757813,19767.3827194712
"111003",Ballao,9.35985141,39.54850967,"35235","35353","3",Sponde del fiume, , ,"0",,"0",0,"0","0","0",No,Nessuna informazione,0,0,0,"0","0",Nessuna,Nessuna,Non verificato, ,"20092097",Quirra,1998/05/09 00:00:00, ,"1961",R. Viola,1559.79656303,{EA540016-7909-4FF2-A588-5120024C6FD7},,1555.75873147785,21892.4945966669
"111004",Barrali,9.10256337,39.47571098,"4102","4219","1",Bassa,Rocciosa, ,"0",,"0",0,"0","0","0",No,Nessuna informazione,0,0,0,"0","0",Nessuna,Nessuna,Non verificato, ,"20092009",Sarroch,1998/05/10 00:00:00, ,"1958",R. Viola,14402.7657808,{CF93F619-C81B-45ED-9423-CD0656822F5B},,14355.5720586775,22834.9546208029
"111005",Barumini,9.00284088,39.70479293,"34163","35381","3",Sponde del fiume, , ,"0",,"0",0,"0","0","0",No,Nessuna informazione,0,0,0,"0","0",Nessuna,Nessuna,Non verificato, ,"20095065",Oristano,1998/05/09 00:00:00, ,"1965",M. Laurieri,708.54426017,{B7EFE0C5-C207-4D1C-9002-86C911ACD3D6},,705.901655328619,36737.8601262472
"111006",Buggerru,8.40082773,39.397,"1928","1829","1",Alta,Rocciosa, ,"0",,"0",0,"0","0","0",Si,Nessuna informazione,0,0,0,"0","0",Nessuna,Nessuna,Non verificato, ,"20092007",Buggerru,1998/05/09 00:00:00, ,"1965",R. Viola,371.51338764,{A156B49C-EC54-4914-A7AB-FA7562AB05FD},,370.049761401735,0
"111007",Burcei,9.36158826,39.34651389,"16260","16097","1",Bassa,Sabbiosa, ,"0",,"0",0,"0","0","0",Si,Stabilità,0,0,0,"0","0",Nessuna,Nessuna,Non verificato, ,"20092051",Quartu S. Elena,1998/05/10 00:00:00, ,"1958",R. Viola,1628.86591605,{87E3403B-65D3-4070-B1C8-93697ED5BD82},,1624.01288732786,14821.8753481875
"111008",Calasetta,8.36539576,39.10727051,"2444","2364","1",Alta,Rocciosa, ,"0",,"0",0,"0","0","0",Si,Nessuna informazione,0,0,0,"0","0",Nessuna,Nessuna,Non verificato, ,"20092010",Calasetta,1998/05/10 00:00:00, ,"1965",R. Viola,1690.6901711,{BB99B65D-D77D-43AF-8C80-0A29C073A8D2},,1683.90848196165,0
"111009",Carbonia,8.52624268,39.16641462,"35384","35335","3",Sponde del fiume, , ,"0",,"0",0,"0","0","0",No,Nessuna informazione,0,0,0,"0","0",Nessuna,Nessuna,Non verificato, ,"20092056",Portoscuso,1998/05/10 00:00:00, ,"1965",R. Viola,666.25187869,{E1D3B5CA-B2F5-482E-8D73-27C865D855B3},,663.656607131812,6001.77176622854
"111010",Carloforte,8.3055801,39.1457562,"7281","7056","1",Bassa,Rocciosa, ,"0",,"0",0,"0","0","0",Si,Nessuna informazione,0,0,0,"0","0",Nessuna,Nessuna,Ottima, ,"20092013",Carloforte,1998/05/10 00:00:00, ,"1965",V. Proto,352.91685349,{D53343C9-616E-4EA8-80BD-8B824F523728},,351.484131330085,0
"111011",Castiadas,9.52360309,39.27560709,"35344","35295","3",Sponde del fiume, , ,"0",,"0",0,"0","0","0",No,Nessuna informazione,0,0,0,"0","0",Nessuna,Nessuna,Non verificato, ,"20092039",Costa Rei,1998/05/10 00:00:00, ,"1961",R. Viola,182.32753928,{A6F18E91-8C80-4D14-BDB8-AE31AEBCAB35},,181.84153470098,4033.74151893679
"111012",Collinas,8.83685176,39.64089335,"34163","35381","3",Sponde del fiume, , ,"0",,"0",0,"0","0","0",No,Nessuna informazione,0,0,0,"0","0",Nessuna,Nessuna,Non verificato, ,"20095065",Oristano,1998/05/09 00:00:00, ,"1965",M. Laurieri,708.54426017,{B7EFE0C5-C207-4D1C-9002-86C911ACD3D6},,705.901655328619,23236.020598671
"111013",Decimoputzu,8.91892367,39.33508481,"4102","4219","1",Bassa,Rocciosa, ,"0",,"0",0,"0","0","0",No,Nessuna informazione,0,0,0,"0","0",Nessuna,Nessuna,Non verificato, ,"20092009",Sarroch,1998/05/10 00:00:00, ,"1958",R. Viola,14402.7657808,{CF93F619-C81B-45ED-9423-CD0656822F5B},,14355.5720586775,9554.98909566104
"111014",Dolianova,9.17578588,39.37561451,"4240","4227","1",Bassa,Rocciosa, ,"0",,"0",0,"0","0","0",No,Nessuna informazione,0,0,0,"0","0",Nessuna,Nessuna,Ottima, ,"20092009",Sarroch,1998/05/10 00:00:00, ,"1958",R. Viola,1763.23018079,{0F41CA93-9361-45F2-8014-396664DBA6F3},,1757.57580298593,15634.0830150993
"111015",Domus de Maria,8.86371992,38.94586977,"2582","2514","1",Alta,Rocciosa, ,"0",,"0",0,"0","0","0",Si,Nessuna informazione,0,0,0,"0","0",Nessuna,Nessuna,Non verificato, ,"20092050",S. Margherita,1998/05/10 00:00:00, ,"1963",R. Viola,226.52483208,{17D19FD9-98A8-4DBB-890C-8EC98E438FD9},,225.748970553868,4261.73016439683
"111016",Domusnovas,8.65337095,39.32126404,"2562","2482","1",Alta,Rocciosa, ,"0",,"0",0,"0","0","0",Si,Nessuna informazione,0,0,0,"0","0",Nessuna,Nessuna,Non verificato, ,"20092028",Fontanamare,1998/05/10 00:00:00, ,"1965",R. Viola,2255.04091367,{69C0E28F-5812-4D5C-8F16-5FAF96604866},,2246.22701473939,17920.5645420994
"111017",Donori,9.12629252,39.43252841,"4102","4219","1",Bassa,Rocciosa, ,"0",,"0",0,"0","0","0",No,Nessuna informazione,0,0,0,"0","0",Nessuna,Nessuna,Non verificato, ,"20092009",Sarroch,1998/05/10 00:00:00, ,"1958",R. Viola,14402.7657808,{CF93F619-C81B-45ED-9423-CD0656822F5B},,14355.5720586775,18918.6306294254
"111018",Escalaplano,9.35509402,39.62627857,"16037","15916","1",Bassa,Sabbiosa, ,"0",,"0",0,"0","0","0",Si,Stabilità,0,0,0,"0","0",Nessuna,Nessuna,Non verificato, ,"20091089",Quirra,1998/05/09 00:00:00, ,"1961",R. Viola,1157.79836347,{40AA7035-FE15-4691-8DF5-4BFE48376FF0},,1154.84065944366,24209.23367649
"111019",Escolca,9.12370676,39.69907825,"16037","15916","1",Bassa,Sabbiosa, ,"0",,"0",0,"0","0","0",Si,Stabilità,0,0,0,"0","0",Nessuna,Nessuna,Non verificato, ,"20091089",Quirra,1998/05/09 00:00:00, ,"1961",R. Viola,1157.79836347,{40AA7035-FE15-4691-8DF5-4BFE48376FF0},,1154.84065944366,44204.3904407227
"111020",Esterzili,9.285227,39.78062365,"35163","35138","3",Sponde del fiume, , ,"0",,"0",0,"0","0","0",No,Nessuna informazione,0,0,0,"0","0",Nessuna,Nessuna,Non verificato, ,"20091026",Quirra,1998/05/11 00:00:00, ,"1961",R. Viola,633.6961812,{34673847-4AD8-4F91-957C-F3ABF9602394},,632.097194183961,31769.8660203742
"111021",Fluminimaggiore,8.49786516,39.43640202,"35322","35273","3",Sponde del fiume, , ,"0",,"0",0,"0","0","0",No,Nessuna informazione,0,0,0,"0","0",Nessuna,Nessuna,Non verificato, ,"20092007",Buggerru,1998/05/09 00:00:00, ,"1965",R. Viola,1280.02656174,{3E32E263-2B89-4001-B521-CB4FC963AA5F},,1275.01711303208,5675.80996827911
"111022",Furtei,8.94389583,39.5629782,"4102","4219","1",Bassa,Rocciosa, ,"0",,"0",0,"0","0","0",No,Nessuna informazione,0,0,0,"0","0",Nessuna,Nessuna,Non verificato, ,"20092009",Sarroch,1998/05/10 00:00:00, ,"1958",R. Viola,14402.7657808,{CF93F619-C81B-45ED-9423-CD0656822F5B},,14355.5720586775,32268.8869981108
"111023",Genoni,9.0098478,39.7945028,"20070","20030","2",Opere Portuali, , ,"0",,"0",0,"0","0","0",No,Nessuna informazione,0,0,0,"0","0",Nessuna,Nessuna,Ottima, ,"20095047",Oristano,1998/07/26 00:00:00, ,"1965",R. Viola,10781.4922861,{0CF37167-2AA5-48BE-B00C-8451C0495540},,10741.4074549854,37359.3799423171
"111024",Genuri,8.92316498,39.74279966,"34038","33982","3",Collegamento sponde del fiume, , ,"0",,"0",0,"0","0","0",No,Nessuna informazione,0,0,0,"0","0",Nessuna,Nessuna,Non verificato, ,"20095065",Oristano,1998/05/09 00:00:00, ,"1965",M. Laurieri,35.46855653,{B806E46F-242B-4119-AC6D-1A3C7112EA61},,35.3364796084131,30345.183422019
"111025",Gergei,9.1017631,39.69955192,"34163","35381","3",Sponde del fiume, , ,"0",,"0",0,"0","0","0",No,Nessuna informazione,0,0,0,"0","0",Nessuna,Nessuna,Non verificato, ,"20095065",Oristano,1998/05/09 00:00:00, ,"1965",M. Laurieri,708.54426017,{B7EFE0C5-C207-4D1C-9002-86C911ACD3D6},,705.901655328619,45207.1472327376
"111026",Gesico,9.10637449,39.6151356,"4102","4219","1",Bassa,Rocciosa, ,"0",,"0",0,"0","0","0",No,Nessuna informazione,0,0,0,"0","0",Nessuna,Nessuna,Non verificato, ,"20092009",Sarroch,1998/05/10 00:00:00, ,"1958",R. Viola,14402.7657808,{CF93F619-C81B-45ED-9423-CD0656822F5B},,14355.5720586775,38077.4624698293
"111027",Gesturi,9.02279686,39.73325037,"34163","35381","3",Sponde del fiume, , ,"0",,"0",0,"0","0","0",No,Nessuna informazione,0,0,0,"0","0",Nessuna,Nessuna,Non verificato, ,"20095065",Oristano,1998/05/09 00:00:00, ,"1965",M. Laurieri,708.54426017,{B7EFE0C5-C207-4D1C-9002-86C911ACD3D6},,705.901655328619,38658.3538218425
"111028",Giba,8.63608564,39.07133666,"35340","35291","3",Sponde del fiume, , ,"0",,"0",0,"0","0","0",No,Nessuna informazione,0,0,0,"0","0",Nessuna,Nessuna,Non verificato, ,"20092026",Portoscuso,1998/05/10 00:00:00, ,"1965",R. Viola,1134.46134189,{6ED9AA94-256B-4D93-A38C-015F25E22DC5},,1130.17188256331,4904.68372844291
"111029",Goni,9.28644748,39.57811029,"34219","34103","3",Collegamento sponde del fiume, , ,"0",,"0",0,"0","0","0",No,Nessuna informazione,0,0,0,"0","0",Nessuna,Nessuna,Non verificato, ,"20092097",Quirra,1998/05/09 00:00:00, ,"1961",R. Viola,27.8850656,{4BC3203D-5FF2-4EE4-8C69-F392A7AA9007},,27.8128078757813,28780.8041823556
"111030",Gonnesa,8.47141529,39.26515256,"16230","16057","1",Bassa,Sabbiosa, ,"0",,"0",0,"0","0","0",Si,Stabilità,0,0,0,"0","0",Nessuna,Nessuna,Non verificato, ,"20092028",Fontanamare,1998/05/10 00:00:00, ,"1965",R. Viola,2532.26792501,{F7AA630C-7ED2-4FAB-8464-2B9E35DA043C},,2522.34557867642,2782.74214443224
"111031",Gonnosfanadiga,8.6617126,39.49339845,"35320","35271","3",Sponde del fiume, , ,"0",,"0",0,"0","0","0",No,Nessuna informazione,0,0,0,"0","0",Nessuna,Nessuna,Non verificato, ,"20092001",Costa Verde,1998/05/09 00:00:00, ,"1965",R. Viola,900.46586404,{B6764EAA-8D6A-4491-8288-BCFE584C3E7A},,896.991363322025,17237.1539063006
"111032",Guamaggiore,9.07353555,39.56678792,"4102","4219","1",Bassa,Rocciosa, ,"0",,"0",0,"0","0","0",No,Nessuna informazione,0,0,0,"0","0",Nessuna,Nessuna,Non verificato, ,"20092009",Sarroch,1998/05/10 00:00:00, ,"1958",R. Viola,14402.7657808,{CF93F619-C81B-45ED-9423-CD0656822F5B},,14355.5720586775,32397.2098441109
"111033",Guasila,9.0455535,39.56156351,"4102","4219","1",Bassa,Rocciosa, ,"0",,"0",0,"0","0","0",No,Nessuna informazione,0,0,0,"0","0",Nessuna,Nessuna,Non verificato, ,"20092009",Sarroch,1998/05/10 00:00:00, ,"1958",R. Viola,14402.7657808,{CF93F619-C81B-45ED-9423-CD0656822F5B},,14355.5720586775,31669.4730708741
"111034",Guspini,8.62723238,39.53862206,"35320","35271","3",Sponde del fiume, , ,"0",,"0",0,"0","0","0",No,Nessuna informazione,0,0,0,"0","0",Nessuna,Nessuna,Non verificato, ,"20092001",Costa Verde,1998/05/09 00:00:00, ,"1965",R. Viola,900.46586404,{B6764EAA-8D6A-4491-8288-BCFE584C3E7A},,896.991363322025,13404.3765527678
"111035",Iglesias,8.53146719,39.30993485,"2562","2482","1",Alta,Rocciosa, ,"0",,"0",0,"0","0","0",Si,Nessuna informazione,0,0,0,"0","0",Nessuna,Nessuna,Non verificato, ,"20092028",Fontanamare,1998/05/10 00:00:00, ,"1965",R. Viola,2255.04091367,{69C0E28F-5812-4D5C-8F16-5FAF96604866},,2246.22701473939,7338.03662226858
"111036",Isili,9.10666152,39.74180979,"34163","35381","3",Sponde del fiume, , ,"0",,"0",0,"0","0","0",No,Nessuna informazione,0,0,0,"0","0",Nessuna,Nessuna,Non verificato, ,"20095065",Oristano,1998/05/09 00:00:00, ,"1965",M. Laurieri,708.54426017,{B7EFE0C5-C207-4D1C-9002-86C911ACD3D6},,705.901655328619,45905.05027426
"111037",Las Plassas,8.98359494,39.6783399,"34038","33982","3",Collegamento sponde del fiume, , ,"0",,"0",0,"0","0","0",No,Nessuna informazione,0,0,0,"0","0",Nessuna,Nessuna,Non verificato, ,"20095065",Oristano,1998/05/09 00:00:00, ,"1965",M. Laurieri,35.46855653,{B806E46F-242B-4119-AC6D-1A3C7112EA61},,35.3364796084131,35121.710389658
"111038",Lunamatrona,8.90270446,39.64909104,"34038","33982","3",Collegamento sponde del fiume, , ,"0",,"0",0,"0","0","0",No,Nessuna informazione,0,0,0,"0","0",Nessuna,Nessuna,Non verificato, ,"20095065",Oristano,1998/05/09 00:00:00, ,"1965",M. Laurieri,35.46855653,{B806E46F-242B-4119-AC6D-1A3C7112EA61},,35.3364796084131,28574.6685242117
"111039",Mandas,9.12979552,39.65697588,"4102","4219","1",Bassa,Rocciosa, ,"0",,"0",0,"0","0","0",No,Nessuna informazione,0,0,0,"0","0",Nessuna,Nessuna,Non verificato, ,"20092009",Sarroch,1998/05/10 00:00:00, ,"1958",R. Viola,14402.7657808,{CF93F619-C81B-45ED-9423-CD0656822F5B},,14355.5720586775,42995.3550005266
"111040",Masainas,8.63060063,39.0515453,"35340","35291","3",Sponde del fiume, , ,"0",,"0",0,"0","0","0",No,Nessuna informazione,0,0,0,"0","0",Nessuna,Nessuna,Non verificato, ,"20092026",Portoscuso,1998/05/10 00:00:00, ,"1965",R. Viola,1134.46134189,{6ED9AA94-256B-4D93-A38C-015F25E22DC5},,1130.17188256331,3453.88956379563
"111041",Monastir,9.04409262,39.38718649,"4102","4219","1",Bassa,Rocciosa, ,"0",,"0",0,"0","0","0",No,Nessuna informazione,0,0,0,"0","0",Nessuna,Nessuna,Non verificato, ,"20092009",Sarroch,1998/05/10 00:00:00, ,"1958",R. Viola,14402.7657808,{CF93F619-C81B-45ED-9423-CD0656822F5B},,14355.5720586775,12325.3752583919
"111042",Muravera,9.5746983,39.42157603,"35347","35298","3",Sponde del fiume, , ,"0",,"0",0,"0","0","0",No,Nessuna informazione,0,0,0,"0","0",Nessuna,Nessuna,Non verificato, ,"20092039",Quirra,1998/05/09 00:00:00, ,"1961",R. Viola,1025.19432376,{8C9AD915-B624-4669-BFF7-5E2FFF617C44},,1022.51381784561,2340.43545069268
"111043",Musei,8.66692588,39.30233554,"16232","16059","1",Bassa,Sabbiosa, ,"0",,"0",0,"0","0","0",Si,Stabilità,0,0,0,"0","0",Nessuna,Nessuna,Non verificato, ,"20092028",Fontanamare,1998/05/10 00:00:00, ,"1965",R. Viola,117.24875326,{E7292B6E-8563-4714-B05A-21F9B06A2D48},,116.790723696734,18873.6288785579
"111044",Narcao,8.67731416,39.16738912,"34207","34091","3",Collegamento sponde del fiume, , ,"0",,"0",0,"0","0","0",No,Nessuna informazione,0,0,0,"0","0",Nessuna,Nessuna,Non verificato, ,"20092056",Portoscuso,1998/05/10 00:00:00, ,"1965",R. Viola,34.41187353,{F745C3C8-FB85-4257-9AF2-F6EA6343B604},,34.2806171613119,15430.9006831706
"111045",Nuragus,9.03863555,39.77663845,"20070","20030","2",Opere Portuali, , ,"0",,"0",0,"0","0","0",No,Nessuna informazione,0,0,0,"0","0",Nessuna,Nessuna,Ottima, ,"20095047",Oristano,1998/07/26 00:00:00, ,"1965",R. Viola,10781.4922861,{0CF37167-2AA5-48BE-B00C-8451C0495540},,10741.4074549854,40200.4881456934
"111046",Nurallao,9.07838185,39.7949656,"20070","20030","2",Opere Portuali, , ,"0",,"0",0,"0","0","0",No,Nessuna informazione,0,0,0,"0","0",Nessuna,Nessuna,Ottima, ,"20095047",Oristano,1998/07/26 00:00:00, ,"1965",R. Viola,10781.4922861,{0CF37167-2AA5-48BE-B00C-8451C0495540},,10741.4074549854,43112.6475043685
"111047",Nuraminis,9.0132012,39.44162991,"4102","4219","1",Bassa,Rocciosa, ,"0",,"0",0,"0","0","0",No,Nessuna informazione,0,0,0,"0","0",Nessuna,Nessuna,Non verificato, ,"20092009",Sarroch,1998/05/10 00:00:00, ,"1958",R. Viola,14402.7657808,{CF93F619-C81B-45ED-9423-CD0656822F5B},,14355.5720586775,18378.847690216
