istat,comune,lng,lat,join_OBJECTID_1,join_objectid,join_tipo_costa,join_descrizion,join_litologia,join_nome,join_id_interve,join_anno_costr,join_annodismis,join_dim_opera,join_dim_opera_,join_spaz_opera,join_dist_riva,join_flag_modif,join_modifica_o,join_lung_modif,join_area_modif,join_variaz_med,join_variaz_max,join_id_sistema,join_incongruen,join_incertezza,join_acc_geomet,join_annotazion,join_cod_istat,join_nome_uf,join_dataacqort,join_oraacqorto,join_data_igm,join_resp_digit,join_shape_leng,join_globalid,join_SHAPE__Length,join_Shape_Length,distance
"41001",Acqualagna,"12.67087178","43.61673002","34579","34493","3",Sponde del fiume, , ,"0",,"0","0","0","0","0",No,Nessuna informazione,"0","0","0","0","0",Nessuna,Nessuna,Non verificato, ,"11041013",Rimini,1998/07/25 00:00:00, ,"1948",C. La Mantia,"586.73157987",{63FAC493-5362-464F-AB77-AA12F3BA5E5A},,"587.294526001917","36499.6472825429"
"41002",Apecchio,"12.41964013","43.55830201","19456","19330","2",Opere Portuali, , ,"0",,"0","0","0","0","0",No,Nessuna informazione,"0","0","0","0","0",Nessuna,Nessuna,Non verificato, ,"8099005",Rimini,1998/07/13 00:00:00, ,"1948",V. Angione,"2517.50534912",{F758FA0C-3515-4BDC-9EDC-06F11E4CB04C},,"2519.21981452099","50553.7772051872"
"41003",Auditore,"12.57175016","43.82118648","32706","32641","3",Collegamento sponde del fiume, , ,"0",,"0","0","0","0","0",No,Nessuna informazione,"0","0","0","0","0",Nessuna,Nessuna,Non verificato, ,"8099005",Rimini,1998/07/13 00:00:00, ,"1948",V. Angione,"4.48675833",{51F3EE8D-B660-45DE-833F-3A94D5AF16A6},,"4.4897038771066","18959.7083632322"
"41005",Belforte all'Isauro,"12.37562574","43.7170107","32706","32641","3",Collegamento sponde del fiume, , ,"0",,"0","0","0","0","0",No,Nessuna informazione,"0","0","0","0","0",Nessuna,Nessuna,Non verificato, ,"8099005",Rimini,1998/07/13 00:00:00, ,"1948",V. Angione,"4.48675833",{51F3EE8D-B660-45DE-833F-3A94D5AF16A6},,"4.4897038771066","37617.3465204282"
"41006",Borgo Pace,"12.29461948","43.6581701","32706","32641","3",Collegamento sponde del fiume, , ,"0",,"0","0","0","0","0",No,Nessuna informazione,"0","0","0","0","0",Nessuna,Nessuna,Non verificato, ,"8099005",Rimini,1998/07/13 00:00:00, ,"1948",V. Angione,"4.48675833",{51F3EE8D-B660-45DE-833F-3A94D5AF16A6},,"4.4897038771066","46843.8299374736"
"41007",Cagli,"12.64801492","43.54638176","33687","33586","3",Collegamento sponde del fiume, , ,"0",,"0","0","0","0","0",No,Nessuna informazione,"0","0","0","0","0",Nessuna,Nessuna,Non verificato, ,"11041013",Rimini,1998/07/25 00:00:00, ,"1948",C. La Mantia,"22.20722441",{63D509E6-9B4C-4C78-AB50-30F53BC0320E},,"22.2284496312582","43508.2821363318"
"41008",Cantiano,"12.62723295","43.4736579","34576","34490","3",Sponde del fiume, , ,"0",,"0","0","0","0","0",No,Nessuna informazione,"0","0","0","0","0",Nessuna,Nessuna,Non verificato, ,"11041013",Rimini,1998/07/25 00:00:00, ,"1948",C. La Mantia,"621.47653331",{E197E96C-1791-4F4A-9B94-D192FEDB6FDA},,"622.077758160818","50862.9814786449"
"41009",Carpegna,"12.33599429","43.78121521","32708","32643","3",Collegamento sponde del fiume, , ,"0",,"0","0","0","0","0",No,Nessuna informazione,"0","0","0","0","0",Nessuna,Nessuna,Non verificato, ,"8099013",Rimini,1998/06/29 00:00:00, ,"1948",V. Angione,"17.21761235",{F237258F-5715-41C0-89FA-9E5DAAAE0A22},,"17.2279987011542","34561.0923892207"
"41010",Cartoceto,"12.88376809","43.76458096","33687","33586","3",Collegamento sponde del fiume, , ,"0",,"0","0","0","0","0",No,Nessuna informazione,"0","0","0","0","0",Nessuna,Nessuna,Non verificato, ,"11041013",Rimini,1998/07/25 00:00:00, ,"1948",C. La Mantia,"22.20722441",{63D509E6-9B4C-4C78-AB50-30F53BC0320E},,"22.2284496312582","12728.9047513128"
"41013",Fano,"13.01966068","43.84340093","8474","8286","1",Bassa,Sabbiosa, ,"0",,"0","0","0","0","0",Si,Avanzamento,"781.13","34011.2","48.54","72","0",Nessuna,Nessuna,Non verificato, ,"11041013",Rimini,1998/07/25 00:00:00, ,"1948",C. La Mantia,"16.11633886",{4E32ED4B-5DAC-4BEE-AC51-12FC6F202ED1},,"16.1320437525741","0"
"41014",Fermignano,"12.64528129","43.6764905","32705","32640","3",Collegamento sponde del fiume, , ,"0",,"0","0","0","0","0",No,Nessuna informazione,"0","0","0","0","0",Nessuna,Nessuna,Non verificato, ,"8099002",Rimini,1998/07/13 00:00:00, ,"1948",V. Angione,"23.34611261",{5C2C60D1-6A94-4507-86BE-86883BE4667B},,"23.3622983190561","31976.5942840655"
"41015",Fossombrone,"12.80571229","43.68885252","33687","33586","3",Collegamento sponde del fiume, , ,"0",,"0","0","0","0","0",No,Nessuna informazione,"0","0","0","0","0",Nessuna,Nessuna,Non verificato, ,"11041013",Rimini,1998/07/25 00:00:00, ,"1948",C. La Mantia,"22.20722441",{63D509E6-9B4C-4C78-AB50-30F53BC0320E},,"22.2284496312582","23188.8953460206"
"41016",Fratte Rosa,"12.90097388","43.63196171","11254","11183","1",Bassa,Sabbiosa, ,"0",,"0","0","0","0","0",Si,Erosione,"4293.29","160646.07","42.42","64","0",Nessuna,Nessuna,Non verificato, ,"11041013",Rimini,1998/07/25 00:00:00, ,"1948",C. La Mantia,"4242.31380959",{A380CA4D-88C1-4038-A74B-833AC41574FB},,"4246.82778325706","23319.0183683094"
"41017",Frontino,"12.3774383","43.76458228","32706","32641","3",Collegamento sponde del fiume, , ,"0",,"0","0","0","0","0",No,Nessuna informazione,"0","0","0","0","0",Nessuna,Nessuna,Non verificato, ,"8099005",Rimini,1998/07/13 00:00:00, ,"1948",V. Angione,"4.48675833",{51F3EE8D-B660-45DE-833F-3A94D5AF16A6},,"4.4897038771066","33691.6522076161"
"41018",Frontone,"12.73891053","43.51462189","11254","11183","1",Bassa,Sabbiosa, ,"0",,"0","0","0","0","0",Si,Erosione,"4293.29","160646.07","42.42","64","0",Nessuna,Nessuna,Non verificato, ,"11041013",Rimini,1998/07/25 00:00:00, ,"1948",C. La Mantia,"4242.31380959",{A380CA4D-88C1-4038-A74B-833AC41574FB},,"4246.82778325706","41807.0641124774"
"41019",Gabicce Mare,"12.75648023","43.96658771","7884","7773","1",Bassa,Sabbiosa, ,"0",,"0","0","0","0","0",Si,Avanzamento,"1311.64","32519.46","29.79","60","0",Nessuna,Nessuna,Non verificato, ,"11041019",Rimini,1998/07/13 00:00:00, ,"1948",C. La Mantia,"331.90926785",{8B5EE091-677F-4E98-B2D3-74DD279C8F97},,"332.146691940856","0"
"41020",Gradara,"12.77300459","43.94077611","1247","1074","1",Alta,Rocciosa, ,"0",,"0","0","0","0","0",Si,Nessuna informazione,"0","0","0","0","0",Nessuna,Nessuna,Non verificato, ,"11041019",Rimini,1998/07/13 00:00:00, ,"1948",C. La Mantia,"483.26212668",{58B0208E-BFB7-4A85-89CE-A604479A912A},,"483.617832742806","1772.95467066323"
"41021",Isola del Piano,"12.78293406","43.7371568","12778","12743","1",Bassa,Sabbiosa, ,"0",,"0","0","0","0","0",Si,Stabilità,"0","0","0","0","0",Nessuna,Nessuna,Non verificato, ,"11041013",Rimini,1998/07/25 00:00:00, ,"1948",C. La Mantia,"106.34853416",{BA168CB2-C037-4000-BA13-1494D4CB1E13},,"106.446989323222","20581.7429761309"
"41022",Lunano,"12.44098613","43.73047","34478","34392","3",Sponde del fiume, , ,"0",,"0","0","0","0","0",No,Nessuna informazione,"0","0","0","0","0",Nessuna,Nessuna,Non verificato, ,"8099005",Rimini,1998/07/13 00:00:00, ,"1948",V. Angione,"643.71457522",{CACB48FE-844E-4DF1-849A-541D890FC30D},,"644.139082579975","33156.2711137678"
"41023",Macerata Feltria,"12.44277531","43.80308276","32706","32641","3",Collegamento sponde del fiume, , ,"0",,"0","0","0","0","0",No,Nessuna informazione,"0","0","0","0","0",Nessuna,Nessuna,Non verificato, ,"8099005",Rimini,1998/07/13 00:00:00, ,"1948",V. Angione,"4.48675833",{51F3EE8D-B660-45DE-833F-3A94D5AF16A6},,"4.4897038771066","26931.9507897615"
"41025",Mercatello sul Metauro,"12.33675362","43.64750954","34478","34392","3",Sponde del fiume, , ,"0",,"0","0","0","0","0",No,Nessuna informazione,"0","0","0","0","0",Nessuna,Nessuna,Non verificato, ,"8099005",Rimini,1998/07/13 00:00:00, ,"1948",V. Angione,"643.71457522",{CACB48FE-844E-4DF1-849A-541D890FC30D},,"644.139082579975","45583.5603484407"
"41026",Mercatino Conca,"12.49350427","43.87042655","32707","32642","3",Collegamento sponde del fiume, , ,"0",,"0","0","0","0","0",No,Nessuna informazione,"0","0","0","0","0",Nessuna,Nessuna,Non verificato, ,"8099013",Rimini,1998/06/29 00:00:00, ,"1948",V. Angione,"17.2659266",{A8446CD4-AB3E-49D1-95E2-3B7068C57DC7},,"17.2766540537803","18810.7622951111"
"41027",Mombaroccio,"12.85487947","43.79683666","12778","12743","1",Bassa,Sabbiosa, ,"0",,"0","0","0","0","0",Si,Stabilità,"0","0","0","0","0",Nessuna,Nessuna,Non verificato, ,"11041013",Rimini,1998/07/25 00:00:00, ,"1948",C. La Mantia,"106.34853416",{BA168CB2-C037-4000-BA13-1494D4CB1E13},,"106.446989323222","11796.7142219842"
"41028",Mondavio,"12.9686012","43.67453553","11254","11183","1",Bassa,Sabbiosa, ,"0",,"0","0","0","0","0",Si,Erosione,"4293.29","160646.07","42.42","64","0",Nessuna,Nessuna,Non verificato, ,"11041013",Rimini,1998/07/25 00:00:00, ,"1948",C. La Mantia,"4242.31380959",{A380CA4D-88C1-4038-A74B-833AC41574FB},,"4246.82778325706","16119.0302963756"
"41029",Mondolfo,"13.09546209","43.75151916","11254","11183","1",Bassa,Sabbiosa, ,"0",,"0","0","0","0","0",Si,Erosione,"4293.29","160646.07","42.42","64","0",Nessuna,Nessuna,Non verificato, ,"11041013",Rimini,1998/07/25 00:00:00, ,"1948",C. La Mantia,"4242.31380959",{A380CA4D-88C1-4038-A74B-833AC41574FB},,"4246.82778325706","2867.95207366042"
"41030",Montecalvo in Foglia,"12.6315798","43.8115456","19456","19330","2",Opere Portuali, , ,"0",,"0","0","0","0","0",No,Nessuna informazione,"0","0","0","0","0",Nessuna,Nessuna,Non verificato, ,"8099005",Rimini,1998/07/13 00:00:00, ,"1948",V. Angione,"2517.50534912",{F758FA0C-3515-4BDC-9EDC-06F11E4CB04C},,"2519.21981452099","17802.4733306656"
"41031",Monte Cerignone,"12.41263275","43.84098868","32708","32643","3",Collegamento sponde del fiume, , ,"0",,"0","0","0","0","0",No,Nessuna informazione,"0","0","0","0","0",Nessuna,Nessuna,Non verificato, ,"8099013",Rimini,1998/06/29 00:00:00, ,"1948",V. Angione,"17.21761235",{F237258F-5715-41C0-89FA-9E5DAAAE0A22},,"17.2279987011542","25494.7123041612"
"41032",Monteciccardo,"12.80825569","43.81930079","33867","33861","3",Sponde del fiume, , ,"0",,"0","0","0","0","0",No,Nessuna informazione,"0","0","0","0","0",Nessuna,Nessuna,Non verificato, ,"11041044",Rimini,1998/07/18 00:00:00, ,"1948",C. La Mantia,"920.19185774",{9F34D71D-0294-48BB-AFAD-CC1C1ED8AE6A},,"920.982346163974","12213.1245839867"
"41034",Montefelcino,"12.83320397","43.73506647","34579","34493","3",Sponde del fiume, , ,"0",,"0","0","0","0","0",No,Nessuna informazione,"0","0","0","0","0",Nessuna,Nessuna,Non verificato, ,"11041013",Rimini,1998/07/25 00:00:00, ,"1948",C. La Mantia,"586.73157987",{63FAC493-5362-464F-AB77-AA12F3BA5E5A},,"587.294526001917","17934.0604783933"
"41035",Monte Grimano Terme,"12.47284802","43.8654428","34485","34399","3",Sponde del fiume, , ,"0",,"0","0","0","0","0",No,Nessuna informazione,"0","0","0","0","0",Nessuna,Nessuna,Non verificato, ,"8099013",Rimini,1998/06/29 00:00:00, ,"1948",V. Angione,"498.42186253",{92108648-7E70-422F-A8BE-10B9FC4A4F61},,"498.722343655332","20304.0007626497"
"41036",Montelabbate,"12.79076238","43.84907238","10858","10764","1",Bassa,Sabbiosa, ,"0",,"0","0","0","0","0",Si,Erosione,"2381.05","103004.1","48.26","80","0",Nessuna,Nessuna,Non verificato,era stata erroneamente assegnata alta rocciosa,"11041044",Rimini,1998/07/18 00:00:00, ,"1948",C. La Mantia,"2346.31192378",{21D0F9B3-D78A-4F34-9445-4E1A01435307},,"2348.22015092106","10329.8935257192"
"41038",Monte Porzio,"13.04518523","43.68986551","12784","12749","1",Bassa,Sabbiosa, ,"0",,"0","0","0","0","0",Si,Stabilità,"0","0","0","0","0",Nessuna,Nessuna,Non verificato, ,"11041029",Rimini,1998/07/25 00:00:00, ,"1948",C. La Mantia,"959.87485571",{5601C923-F4C6-4C52-907A-7A1C4F8E0625},,"960.919508111225","10708.2329845553"
"41041",Peglio,"12.49603827","43.6960392","32706","32641","3",Collegamento sponde del fiume, , ,"0",,"0","0","0","0","0",No,Nessuna informazione,"0","0","0","0","0",Nessuna,Nessuna,Non verificato, ,"8099005",Rimini,1998/07/13 00:00:00, ,"1948",V. Angione,"4.48675833",{51F3EE8D-B660-45DE-833F-3A94D5AF16A6},,"4.4897038771066","34118.503082534"
"41043",Pergola,"12.83598983","43.56288219","11254","11183","1",Bassa,Sabbiosa, ,"0",,"0","0","0","0","0",Si,Erosione,"4293.29","160646.07","42.42","64","0",Nessuna,Nessuna,Non verificato, ,"11041013",Rimini,1998/07/25 00:00:00, ,"1948",C. La Mantia,"4242.31380959",{A380CA4D-88C1-4038-A74B-833AC41574FB},,"4246.82778325706","32496.373886329"
"41044",Pesaro,"12.91345991","43.91014021","9479","9389","1",Bassa,Sabbiosa, ,"0",,"0","0","0","0","0",Si,Erosione,"966.19","18671.83","24.33","36","0",Nessuna,Nessuna,Non verificato, ,"11041044",Rimini,1998/07/18 00:00:00, ,"1948",C. La Mantia,"886.46542495",{5ABED432-F682-4C6F-928D-25ACF626044E},,"887.23404785664","0"
"41045",Petriano,"12.73335409","43.78031434","10858","10764","1",Bassa,Sabbiosa, ,"0",,"0","0","0","0","0",Si,Erosione,"2381.05","103004.1","48.26","80","0",Nessuna,Nessuna,Non verificato,era stata erroneamente assegnata alta rocciosa,"11041044",Rimini,1998/07/18 00:00:00, ,"1948",C. La Mantia,"2346.31192378",{21D0F9B3-D78A-4F34-9445-4E1A01435307},,"2348.22015092106","19256.3356604246"
"41047",Piandimeleto,"12.41513494","43.72416077","34478","34392","3",Sponde del fiume, , ,"0",,"0","0","0","0","0",No,Nessuna informazione,"0","0","0","0","0",Nessuna,Nessuna,Non verificato, ,"8099005",Rimini,1998/07/13 00:00:00, ,"1948",V. Angione,"643.71457522",{CACB48FE-844E-4DF1-849A-541D890FC30D},,"644.139082579975","34976.5340117133"
"41048",Pietrarubbia,"12.37740064","43.80420265","32708","32643","3",Collegamento sponde del fiume, , ,"0",,"0","0","0","0","0",No,Nessuna informazione,"0","0","0","0","0",Nessuna,Nessuna,Non verificato, ,"8099013",Rimini,1998/06/29 00:00:00, ,"1948",V. Angione,"17.21761235",{F237258F-5715-41C0-89FA-9E5DAAAE0A22},,"17.2279987011542","30437.8005691139"
"41049",Piobbico,"12.5103492","43.58882426","19456","19330","2",Opere Portuali, , ,"0",,"0","0","0","0","0",No,Nessuna informazione,"0","0","0","0","0",Nessuna,Nessuna,Non verificato, ,"8099005",Rimini,1998/07/13 00:00:00, ,"1948",V. Angione,"2517.50534912",{F758FA0C-3515-4BDC-9EDC-06F11E4CB04C},,"2519.21981452099","44423.8264221773"
"41051",San Costanzo,"13.06950997","43.76311801","11254","11183","1",Bassa,Sabbiosa, ,"0",,"0","0","0","0","0",Si,Erosione,"4293.29","160646.07","42.42","64","0",Nessuna,Nessuna,Non verificato, ,"11041013",Rimini,1998/07/25 00:00:00, ,"1948",C. La Mantia,"4242.31380959",{A380CA4D-88C1-4038-A74B-833AC41574FB},,"4246.82778325706","3389.14348013094"
"41054",San Lorenzo in Campo,"12.94543344","43.60342232","12784","12749","1",Bassa,Sabbiosa, ,"0",,"0","0","0","0","0",Si,Stabilità,"0","0","0","0","0",Nessuna,Nessuna,Non verificato, ,"11041029",Rimini,1998/07/25 00:00:00, ,"1948",C. La Mantia,"959.87485571",{5601C923-F4C6-4C52-907A-7A1C4F8E0625},,"960.919508111225","23249.6691321599"
"41057",Sant'Angelo in Vado,"12.41326777","43.66489783","34479","34393","3",Sponde del fiume, , ,"0",,"0","0","0","0","0",No,Nessuna informazione,"0","0","0","0","0",Nessuna,Nessuna,Non verificato, ,"8099005",Rimini,1998/07/13 00:00:00, ,"1948",V. Angione,"656.69866539",{48BCA239-7692-468C-AE7A-44FF5623D603},,"657.131562560073","40435.2462001365"
"41058",Sant'Ippolito,"12.87103494","43.6848265","34576","34490","3",Sponde del fiume, , ,"0",,"0","0","0","0","0",No,Nessuna informazione,"0","0","0","0","0",Nessuna,Nessuna,Non verificato, ,"11041013",Rimini,1998/07/25 00:00:00, ,"1948",C. La Mantia,"621.47653331",{E197E96C-1791-4F4A-9B94-D192FEDB6FDA},,"622.077758160818","20326.4170426271"
"41059",Sassocorvaro,"12.49531808","43.78094127","34478","34392","3",Sponde del fiume, , ,"0",,"0","0","0","0","0",No,Nessuna informazione,"0","0","0","0","0",Nessuna,Nessuna,Non verificato, ,"8099005",Rimini,1998/07/13 00:00:00, ,"1948",V. Angione,"643.71457522",{CACB48FE-844E-4DF1-849A-541D890FC30D},,"644.139082579975","26043.498064691"
"41061",Serra Sant'Abbondio,"12.77061803","43.49085038","11254","11183","1",Bassa,Sabbiosa, ,"0",,"0","0","0","0","0",Si,Erosione,"4293.29","160646.07","42.42","64","0",Nessuna,Nessuna,Non verificato, ,"11041013",Rimini,1998/07/25 00:00:00, ,"1948",C. La Mantia,"4242.31380959",{A380CA4D-88C1-4038-A74B-833AC41574FB},,"4246.82778325706","41967.3716535217"
"41064",Tavoleto,"12.59263731","43.84623247","32706","32641","3",Collegamento sponde del fiume, , ,"0",,"0","0","0","0","0",No,Nessuna informazione,"0","0","0","0","0",Nessuna,Nessuna,Non verificato, ,"8099005",Rimini,1998/07/13 00:00:00, ,"1948",V. Angione,"4.48675833",{51F3EE8D-B660-45DE-833F-3A94D5AF16A6},,"4.4897038771066","15710.3354179891"
"41065",Tavullia,"12.75319778","43.89794226","34581","34495","3",Sponde del fiume, , ,"0",,"0","0","0","0","0",No,Nessuna informazione,"0","0","0","0","0",Nessuna,Nessuna,Non verificato, ,"11041019",Rimini,1998/07/13 00:00:00, ,"1948",V. Angione,"70.21797309",{0ADF945A-CFC9-43E1-9158-B39BCD87EB51},,"70.2682757559321","6466.51990287665"
"41066",Urbania,"12.52426743","43.66837713","19456","19330","2",Opere Portuali, , ,"0",,"0","0","0","0","0",No,Nessuna informazione,"0","0","0","0","0",Nessuna,Nessuna,Non verificato, ,"8099005",Rimini,1998/07/13 00:00:00, ,"1948",V. Angione,"2517.50534912",{F758FA0C-3515-4BDC-9EDC-06F11E4CB04C},,"2519.21981452099","35840.0898228471"
"41067",Urbino,"12.63729902","43.72512229","32705","32640","3",Collegamento sponde del fiume, , ,"0",,"0","0","0","0","0",No,Nessuna informazione,"0","0","0","0","0",Nessuna,Nessuna,Non verificato, ,"8099002",Rimini,1998/07/13 00:00:00, ,"1948",V. Angione,"23.34611261",{5C2C60D1-6A94-4507-86BE-86883BE4667B},,"23.3622983190561","26852.7778590412"
"41068",Vallefoglia,"12.8013","43.8264","33688","33587","3",Collegamento sponde del fiume, , ,"0",,"0","0","0","0","0",No,Nessuna informazione,"0","0","0","0","0",Nessuna,Nessuna,Non verificato, ,"11041044",Rimini,1998/07/18 00:00:00, ,"1948",C. La Mantia,"32.84704826",{2AEDDE03-9941-4BFF-A9B0-EAF76953DA9B},,"32.8752962865507","11924.2027083856"
"41069",Colli al Metauro,"12.8982","43.7546","34577","34491","3",Sponde del fiume, , ,"0",,"0","0","0","0","0",No,Nessuna informazione,"0","0","0","0","0",Nessuna,Nessuna,Non verificato, ,"11041013",Rimini,1998/07/25 00:00:00, ,"1948",C. La Mantia,"608.5720047",{800070A3-32AF-4AEE-AF9A-B2347B78702F},,"609.16094077022","12789.893090244"
"41070",Terre Roveresche,"12.9641","43.6876","11254","11183","1",Bassa,Sabbiosa, ,"0",,"0","0","0","0","0",Si,Erosione,"4293.29","160646.07","42.42","64","0",Nessuna,Nessuna,Non verificato, ,"11041013",Rimini,1998/07/25 00:00:00, ,"1948",C. La Mantia,"4242.31380959",{A380CA4D-88C1-4038-A74B-833AC41574FB},,"4246.82778325706","15333.1990916489"
"42001",Agugliano,"13.38580376","43.54337654","8802","8696","1",Bassa,Sabbiosa, ,"0",,"0","0","0","0","0",Si,Avanzamento,"1934.63","40072.61","25.71","40","0",Nessuna,Nessuna,Non verificato, ,"11042002",Rimini,1998/07/24 00:00:00, ,"1948",C. La Mantia,"1235.62122987",{A06A8FD4-F052-460A-A7CA-E11587136715},,"1237.31933345346","7991.7558168451"
"42002",Ancona,"13.51887537","43.61675973","3527","4935","1",Bassa,Rocciosa, ,"0",,"0","0","0","0","0",Si,Nessuna informazione,"0","0","0","0","0",Nessuna,Nessuna,Non verificato, ,"11042002",Monte Conero,1998/07/24 00:00:00, ,"1948",C. La Mantia,"85.01501266",{26359827-EFBB-48A1-BFFA-D56D6BF114AD},,"85.1394041968772","0"
"42003",Arcevia,"12.93959861","43.49999837","32202","32035","3",Collegamento sponde del fiume, , ,"0",,"0","0","0","0","0",No,Nessuna informazione,"0","0","0","0","0",Nessuna,Nessuna,Non verificato, ,"11042045",Rimini,1998/07/25 00:00:00, ,"1948",C. La Mantia,"33.52492392",{48DD3D47-BCDA-40BD-80F8-CA831CF9BD9B},,"33.5640501747273","31620.3771868582"
"42004",Barbara,"13.02473927","43.58080064","34587","34501","3",Sponde del fiume, , ,"0",,"0","0","0","0","0",No,Nessuna informazione,"0","0","0","0","0",Nessuna,Nessuna,Non verificato, ,"11042045",Rimini,1998/07/25 00:00:00, ,"1948",C. La Mantia,"592.61947317",{E460601A-1BE7-4E5C-A8B8-E7D3594AF1D0},,"593.310775603447","20374.6740609251"
"42005",Belvedere Ostrense,"13.16682409","43.58043733","12889","12767","1",Bassa,Sabbiosa, ,"0",,"0","0","0","0","0",Si,Stabilità,"0","0","0","0","0",Nessuna,Nessuna,Non verificato, ,"11042045",Rimini,1998/07/24 00:00:00, ,"1948",C. La Mantia,"2296.22113434",{6ADFF3DF-B3C7-443A-B4FF-5A7D4BFAE056},,"2299.00787256119","13560.0752093632"
"42006",Camerano,"13.55302876","43.53092763","468","266","1",Alta,Rocciosa, ,"0",,"0","0","0","0","0",Si,Nessuna informazione,"0","0","0","0","0",Nessuna,Nessuna,Non verificato, ,"11042002",Monte Conero,1998/07/24 00:00:00, ,"1948",C. La Mantia,"726.91695414",{19662A89-BB59-4468-9FC5-9C625A646465},,"728.025402371993","3535.34246429323"
"42007",Camerata Picena,"13.35275403","43.57820462","12887","12765","1",Bassa,Sabbiosa, ,"0",,"0","0","0","0","0",Si,Stabilità,"0","0","0","0","0",Nessuna,Nessuna,Non verificato, ,"11042018",Rimini,1998/07/24 00:00:00, ,"1948",C. La Mantia,"88.14141073",{6B0550F1-305D-49B1-8C98-36F20836D97E},,"88.2599253618958","5901.90983242782"
"42008",Castelbellino,"13.14606651","43.48783546","33873","33867","3",Sponde del fiume, , ,"0",,"0","0","0","0","0",No,Nessuna informazione,"0","0","0","0","0",Nessuna,Nessuna,Non verificato, ,"11042027",Rimini,1998/07/24 00:00:00, ,"1948",C. La Mantia,"487.73076846",{4091BCF8-E3A9-4731-A02D-BA1C66B4F1AB},,"488.359680259304","22890.1433820016"
"42010",Castelfidardo,"13.5465963","43.46452646","32205","32038","3",Collegamento sponde del fiume, , ,"0",,"0","0","0","0","0",No,Nessuna informazione,"0","0","0","0","0",Nessuna,Nessuna,Non verificato, ,"11043042",Pescara,1999/07/24 00:00:00, ,"1948",C. La Mantia,"3.25535903",{9D81DC56-D4E3-4767-B2C9-C1654D28A8BB},,"3.26057836039032","6273.53351095125"
"42011",Castelleone di Suasa,"12.97676838","43.60724312","11199","11118","1",Bassa,Sabbiosa, ,"0",,"0","0","0","0","0",Si,Erosione,"3701.26","287230.62","82.6","144","0",Nessuna,Nessuna,Non verificato, ,"11041029",Rimini,1998/07/25 00:00:00, ,"1948",C. La Mantia,"2366.15079629",{707FA330-D240-4A7F-AAE2-33BE670B8228},,"2368.77153912896","21305.4747909474"
"42012",Castelplanio,"13.08135253","43.49458947","12889","12767","1",Bassa,Sabbiosa, ,"0",,"0","0","0","0","0",Si,Stabilità,"0","0","0","0","0",Nessuna,Nessuna,Non verificato, ,"11042045",Rimini,1998/07/24 00:00:00, ,"1948",C. La Mantia,"2296.22113434",{6ADFF3DF-B3C7-443A-B4FF-5A7D4BFAE056},,"2299.00787256119","25347.274520011"
"42013",Cerreto d'Esi,"12.98515333","43.32074084","33873","33867","3",Sponde del fiume, , ,"0",,"0","0","0","0","0",No,Nessuna informazione,"0","0","0","0","0",Nessuna,Nessuna,Non verificato, ,"11042027",Rimini,1998/07/24 00:00:00, ,"1948",C. La Mantia,"487.73076846",{4091BCF8-E3A9-4731-A02D-BA1C66B4F1AB},,"488.359680259304","45521.3378295451"
"42014",Chiaravalle,"13.32555184","43.59973296","32200","32033","3",Collegamento sponde del fiume, , ,"0",,"0","0","0","0","0",No,Nessuna informazione,"0","0","0","0","0",Nessuna,Nessuna,Non verificato, ,"11042027",Rimini,1998/07/24 00:00:00, ,"1948",C. La Mantia,"4.55214896",{F50471E3-5217-492D-918E-AE246BABD8D2},,"4.55809089939503","4606.69078551435"
"42015",Corinaldo,"13.04772759","43.64884868","11199","11118","1",Bassa,Sabbiosa, ,"0",,"0","0","0","0","0",Si,Erosione,"3701.26","287230.62","82.6","144","0",Nessuna,Nessuna,Non verificato, ,"11041029",Rimini,1998/07/25 00:00:00, ,"1948",C. La Mantia,"2366.15079629",{707FA330-D240-4A7F-AAE2-33BE670B8228},,"2368.77153912896","14083.8901114442"
"42016",Cupramontana,"13.11567288","43.44555295","33873","33867","3",Sponde del fiume, , ,"0",,"0","0","0","0","0",No,Nessuna informazione,"0","0","0","0","0",Nessuna,Nessuna,Non verificato, ,"11042027",Rimini,1998/07/24 00:00:00, ,"1948",C. La Mantia,"487.73076846",{4091BCF8-E3A9-4731-A02D-BA1C66B4F1AB},,"488.359680259304","28069.7874259735"
"42017",Fabriano,"12.90472385","43.33626864","34587","34501","3",Sponde del fiume, , ,"0",,"0","0","0","0","0",No,Nessuna informazione,"0","0","0","0","0",Nessuna,Nessuna,Non verificato, ,"11042045",Rimini,1998/07/25 00:00:00, ,"1948",C. La Mantia,"592.61947317",{E460601A-1BE7-4E5C-A8B8-E7D3594AF1D0},,"593.310775603447","47999.6335616452"
"42018",Falconara Marittima,"13.39392666","43.623291","8339","8491","1",Bassa,Sabbiosa, ,"0",,"0","0","0","0","0",Si,Avanzamento,"1234.33","24889.19","25.16","52","0",Nessuna,Nessuna,Non verificato, ,"11042018",Rimini,1998/07/24 00:00:00, ,"1948",C. La Mantia,"338.00667958",{EB302FD1-145A-46E7-B6AC-6B506F80FBAA},,"338.46223856311","0"
"42019",Filottrano,"13.35128311","43.43567741","12884","12762","1",Bassa,Sabbiosa, ,"0",,"0","0","0","0","0",Si,Stabilità,"0","0","0","0","0",Nessuna,Nessuna,Non verificato, ,"11042002",Rimini,1998/07/24 00:00:00, ,"1948",C. La Mantia,"449.87102626",{9B51D4B0-737F-40BD-9FCB-21E0080D7BB6},,"450.493448606511","20135.968379944"
"42020",Genga,"12.93510378","43.42959914","34587","34501","3",Sponde del fiume, , ,"0",,"0","0","0","0","0",No,Nessuna informazione,"0","0","0","0","0",Nessuna,Nessuna,Non verificato, ,"11042045",Rimini,1998/07/25 00:00:00, ,"1948",C. La Mantia,"592.61947317",{E460601A-1BE7-4E5C-A8B8-E7D3594AF1D0},,"593.310775603447","37940.8554097592"
"42021",Jesi,"13.24382689","43.52281933","32200","32033","3",Collegamento sponde del fiume, , ,"0",,"0","0","0","0","0",No,Nessuna informazione,"0","0","0","0","0",Nessuna,Nessuna,Non verificato, ,"11042027",Rimini,1998/07/24 00:00:00, ,"1948",C. La Mantia,"4.55214896",{F50471E3-5217-492D-918E-AE246BABD8D2},,"4.55809089939503","15089.8039189409"
"42022",Loreto,"13.60792879","43.44028357","11252","11181","1",Bassa,Sabbiosa, ,"0",,"0","0","0","0","0",Si,Erosione,"4235.63","157425.8","42.17","84","0",Nessuna,Nessuna,Non verificato, ,"11043042",Pescara,1999/07/24 00:00:00, ,"1948",C. La Mantia,"1337.40589703",{B8F33561-9EA7-48F1-ABD8-CB77ABF15589},,"1339.54377774428","2966.1482298004"
"42023",Maiolati Spontini,"13.11910582","43.47733777","11148","11067","1",Bassa,Sabbiosa, ,"0",,"0","0","0","0","0",Si,Erosione,"3283.87","41878.36","17.75","32","0",Nessuna,Nessuna,Non verificato, ,"11042045",Rimini,1998/07/24 00:00:00, ,"1948",C. La Mantia,"2324.66900084",{CAEDE38A-9104-4875-8A1E-DE654A5CC2C5},,"2327.54254616663","25153.0813884177"
"42024",Mergo,"13.03738719","43.47142461","12889","12767","1",Bassa,Sabbiosa, ,"0",,"0","0","0","0","0",Si,Stabilità,"0","0","0","0","0",Nessuna,Nessuna,Non verificato, ,"11042045",Rimini,1998/07/24 00:00:00, ,"1948",C. La Mantia,"2296.22113434",{6ADFF3DF-B3C7-443A-B4FF-5A7D4BFAE056},,"2299.00787256119","29554.9521827763"
"42025",Monsano,"13.25030883","43.5634831","33873","33867","3",Sponde del fiume, , ,"0",,"0","0","0","0","0",No,Nessuna informazione,"0","0","0","0","0",Nessuna,Nessuna,Non verificato, ,"11042027",Rimini,1998/07/24 00:00:00, ,"1948",C. La Mantia,"487.73076846",{4091BCF8-E3A9-4731-A02D-BA1C66B4F1AB},,"488.359680259304","11019.8390791267"
"42026",Montecarotto,"13.06452723","43.526364","34587","34501","3",Sponde del fiume, , ,"0",,"0","0","0","0","0",No,Nessuna informazione,"0","0","0","0","0",Nessuna,Nessuna,Non verificato, ,"11042045",Rimini,1998/07/25 00:00:00, ,"1948",C. La Mantia,"592.61947317",{E460601A-1BE7-4E5C-A8B8-E7D3594AF1D0},,"593.310775603447","23216.021033039"
"42027",Montemarciano,"13.31022808","43.64008533","10974","10880","1",Bassa,Sabbiosa, ,"0",,"0","0","0","0","0",Si,Erosione,"2589.06","133596.26","56.6","128","0",Nessuna,Nessuna,Non verificato, ,"11042027",Rimini,1998/07/24 00:00:00, ,"1948",C. La Mantia,"929.08706265",{E459E428-4189-4588-ADE0-07DF10C023B2},,"930.266884900157","1585.22896196767"
"42029",Monte Roberto,"13.1385133","43.48144004","33873","33867","3",Sponde del fiume, , ,"0",,"0","0","0","0","0",No,Nessuna informazione,"0","0","0","0","0",Nessuna,Nessuna,Non verificato, ,"11042027",Rimini,1998/07/24 00:00:00, ,"1948",C. La Mantia,"487.73076846",{4091BCF8-E3A9-4731-A02D-BA1C66B4F1AB},,"488.359680259304","23828.0839571622"
"42030",Monte San Vito,"13.27097232","43.60058381","32200","32033","3",Collegamento sponde del fiume, , ,"0",,"0","0","0","0","0",No,Nessuna informazione,"0","0","0","0","0",Nessuna,Nessuna,Non verificato, ,"11042027",Rimini,1998/07/24 00:00:00, ,"1948",C. La Mantia,"4.55214896",{F50471E3-5217-492D-918E-AE246BABD8D2},,"4.55809089939503","6836.0171159228"
"42031",Morro d'Alba,"13.21405308","43.6011298","11148","11067","1",Bassa,Sabbiosa, ,"0",,"0","0","0","0","0",Si,Erosione,"3283.87","41878.36","17.75","32","0",Nessuna,Nessuna,Non verificato, ,"11042045",Rimini,1998/07/24 00:00:00, ,"1948",C. La Mantia,"2324.66900084",{CAEDE38A-9104-4875-8A1E-DE654A5CC2C5},,"2327.54254616663","9451.23666502569"
"42032",Numana,"13.62151362","43.513472","475","273","1",Alta,Rocciosa, ,"0",,"0","0","0","0","0",Si,Nessuna informazione,"0","0","0","0","0",Nessuna,Nessuna,Non verificato, ,"11042048",Pescara,1998/07/24 00:00:00, ,"1948",C. La Mantia,"735.08966123",{5F52B239-CCC2-482E-BBA7-7DECE5B0310B},,"736.24140699136","0"
"42033",Offagna,"13.44148054","43.52725632","18645","18527","2","Altro (lidi, pontili, ecc.)", , ,"0",,"0","0","0","0","0",Si,Erosione,"1403.3","28881.3","25.58","40","0",Nessuna,Nessuna,Non verificato, ,"11042002",Rimini,1998/07/24 00:00:00, ,"1948",C. La Mantia,"975.93270232",{D4B93822-A1D3-4B77-BE74-C20DFED16E27},,"977.305247800024","8250.82067225495"
"42034",Osimo,"13.48190682","43.48618905","8657","8528","1",Bassa,Sabbiosa, ,"0",,"0","0","0","0","0",Si,Avanzamento,"1393.58","67256.87","53.26","120","0",Nessuna,Nessuna,Non verificato, ,"11042032",Pescara,1998/07/24 00:00:00, ,"1948",C. La Mantia,"84.53304603",{7CA71909-9D94-45F1-A458-2315D3F6F681},,"84.6654548089163","10579.7712532681"
"42035",Ostra,"13.15838859","43.61268103","12889","12767","1",Bassa,Sabbiosa, ,"0",,"0","0","0","0","0",Si,Stabilità,"0","0","0","0","0",Nessuna,Nessuna,Non verificato, ,"11042045",Rimini,1998/07/24 00:00:00, ,"1948",C. La Mantia,"2296.22113434",{6ADFF3DF-B3C7-443A-B4FF-5A7D4BFAE056},,"2299.00787256119","11181.6137879921"
"42036",Ostra Vetere,"13.05736333","43.60371382","34587","34501","3",Sponde del fiume, , ,"0",,"0","0","0","0","0",No,Nessuna informazione,"0","0","0","0","0",Nessuna,Nessuna,Non verificato, ,"11042045",Rimini,1998/07/25 00:00:00, ,"1948",C. La Mantia,"592.61947317",{E460601A-1BE7-4E5C-A8B8-E7D3594AF1D0},,"593.310775603447","16708.1283165964"
"42037",Poggio San Marcello,"13.0770505","43.51159656","12889","12767","1",Bassa,Sabbiosa, ,"0",,"0","0","0","0","0",Si,Stabilità,"0","0","0","0","0",Nessuna,Nessuna,Non verificato, ,"11042045",Rimini,1998/07/24 00:00:00, ,"1948",C. La Mantia,"2296.22113434",{6ADFF3DF-B3C7-443A-B4FF-5A7D4BFAE056},,"2299.00787256119","24058.572731396"
"42038",Polverigi,"13.39412242","43.52520561","12884","12762","1",Bassa,Sabbiosa, ,"0",,"0","0","0","0","0",Si,Stabilità,"0","0","0","0","0",Nessuna,Nessuna,Non verificato, ,"11042002",Rimini,1998/07/24 00:00:00, ,"1948",C. La Mantia,"449.87102626",{9B51D4B0-737F-40BD-9FCB-21E0080D7BB6},,"450.493448606511","9593.31185922065"
"42040",Rosora,"13.06919258","43.48275533","12889","12767","1",Bassa,Sabbiosa, ,"0",,"0","0","0","0","0",Si,Stabilità,"0","0","0","0","0",Nessuna,Nessuna,Non verificato, ,"11042045",Rimini,1998/07/24 00:00:00, ,"1948",C. La Mantia,"2296.22113434",{6ADFF3DF-B3C7-443A-B4FF-5A7D4BFAE056},,"2299.00787256119","26990.812440861"
"42041",San Marcello,"13.20620835","43.57673897","11148","11067","1",Bassa,Sabbiosa, ,"0",,"0","0","0","0","0",Si,Erosione,"3283.87","41878.36","17.75","32","0",Nessuna,Nessuna,Non verificato, ,"11042045",Rimini,1998/07/24 00:00:00, ,"1948",C. La Mantia,"2324.66900084",{CAEDE38A-9104-4875-8A1E-DE654A5CC2C5},,"2327.54254616663","12043.7302146291"
"42042",San Paolo di Jesi,"13.17356825","43.45488092","32200","32033","3",Collegamento sponde del fiume, , ,"0",,"0","0","0","0","0",No,Nessuna informazione,"0","0","0","0","0",Nessuna,Nessuna,Non verificato, ,"11042027",Rimini,1998/07/24 00:00:00, ,"1948",C. La Mantia,"4.55214896",{F50471E3-5217-492D-918E-AE246BABD8D2},,"4.55809089939503","24492.6984507781"
"42043",Santa Maria Nuova,"13.31053369","43.49594448","12886","12764","1",Bassa,Sabbiosa, ,"0",,"0","0","0","0","0",Si,Stabilità,"0","0","0","0","0",Nessuna,Nessuna,Non verificato, ,"11042018",Rimini,1998/07/24 00:00:00, ,"1948",C. La Mantia,"100.76631416",{D2B6627E-4734-4317-9ED2-70CBC0345581},,"100.903264418839","15488.0398331112"
"42044",Sassoferrato,"12.85865231","43.43599892","32202","32035","3",Collegamento sponde del fiume, , ,"0",,"0","0","0","0","0",No,Nessuna informazione,"0","0","0","0","0",Nessuna,Nessuna,Non verificato, ,"11042045",Rimini,1998/07/25 00:00:00, ,"1948",C. La Mantia,"33.52492392",{48DD3D47-BCDA-40BD-80F8-CA831CF9BD9B},,"33.5640501747273","41295.8931065546"
"42045",Senigallia,"13.21778017","43.71482786","7664","7439","1",Bassa,Sabbiosa, ,"0",,"0","0","0","0","0",Si,Avanzamento,"3462.08","126552.74","41.55","76","0",Nessuna,Nessuna,Non verificato, ,"11042045",Rimini,1998/07/25 00:00:00, ,"1948",C. La Mantia,"3381.50835575",{0943227F-27FA-4550-A533-A90FE06B80C0},,"3385.40158290493","0"
"42046",Serra de' Conti,"13.03777268","43.5425796","32202","32035","3",Collegamento sponde del fiume, , ,"0",,"0","0","0","0","0",No,Nessuna informazione,"0","0","0","0","0",Nessuna,Nessuna,Non verificato, ,"11042045",Rimini,1998/07/25 00:00:00, ,"1948",C. La Mantia,"33.52492392",{48DD3D47-BCDA-40BD-80F8-CA831CF9BD9B},,"33.5640501747273","22888.6671543114"
"42047",Serra San Quirico,"13.01483261","43.44757996","12889","12767","1",Bassa,Sabbiosa, ,"0",,"0","0","0","0","0",Si,Stabilità,"0","0","0","0","0",Nessuna,Nessuna,Non verificato, ,"11042045",Rimini,1998/07/24 00:00:00, ,"1948",C. La Mantia,"2296.22113434",{6ADFF3DF-B3C7-443A-B4FF-5A7D4BFAE056},,"2299.00787256119","32768.6417872915"
"42048",Sirolo,"13.61604009","43.52601874","475","273","1",Alta,Rocciosa, ,"0",,"0","0","0","0","0",Si,Nessuna informazione,"0","0","0","0","0",Nessuna,Nessuna,Non verificato, ,"11042048",Pescara,1998/07/24 00:00:00, ,"1948",C. La Mantia,"735.08966123",{5F52B239-CCC2-482E-BBA7-7DECE5B0310B},,"736.24140699136","0"
"42049",Staffolo,"13.18631858","43.43286075","32200","32033","3",Collegamento sponde del fiume, , ,"0",,"0","0","0","0","0",No,Nessuna informazione,"0","0","0","0","0",Nessuna,Nessuna,Non verificato, ,"11042027",Rimini,1998/07/24 00:00:00, ,"1948",C. La Mantia,"4.55214896",{F50471E3-5217-492D-918E-AE246BABD8D2},,"4.55809089939503","26109.244661691"
"42050",Trecastelli,"13.1064","43.6718","32202","32035","3",Collegamento sponde del fiume, , ,"0",,"0","0","0","0","0",No,Nessuna informazione,"0","0","0","0","0",Nessuna,Nessuna,Non verificato, ,"11042045",Rimini,1998/07/25 00:00:00, ,"1948",C. La Mantia,"33.52492392",{48DD3D47-BCDA-40BD-80F8-CA831CF9BD9B},,"33.5640501747273","8930.12664491257"
"43002",Apiro,"13.13101333","43.39247319","32200","32033","3",Collegamento sponde del fiume, , ,"0",,"0","0","0","0","0",No,Nessuna informazione,"0","0","0","0","0",Nessuna,Nessuna,Non verificato, ,"11042027",Rimini,1998/07/24 00:00:00, ,"1948",C. La Mantia,"4.55214896",{F50471E3-5217-492D-918E-AE246BABD8D2},,"4.55809089939503","32214.4714774518"
"43003",Appignano,"13.34623812","43.36406969","34595","34509","3",Sponde del fiume, , ,"0",,"0","0","0","0","0",No,Nessuna informazione,"0","0","0","0","0",Nessuna,Nessuna,Non verificato, ,"11043042",Pescara,1999/07/24 00:00:00, ,"1948",C. La Mantia,"583.60758944",{88AB394C-60F1-4B15-9E9F-272FE3C166E4},,"584.531609756503","25435.8663904476"
"43004",Belforte del Chienti,"13.23772508","43.16425472","9279","9121","1",Bassa,Sabbiosa, ,"0",,"0","0","0","0","0",Si,Erosione,"181.64","4125.45","27.71","40","0",Nessuna,Nessuna,Non verificato, ,"11043013",Pescara,1998/07/22 00:00:00, ,"1950",C. La Mantia,"130.51679425",{CA0B5660-25CE-443B-BD8D-E48460399464},,"130.73387390728","41893.8545511412"
"43005",Bolognola,"13.22684641","42.99426104","32207","32040","3",Collegamento sponde del fiume, , ,"0",,"0","0","0","0","0",No,Nessuna informazione,"0","0","0","0","0",Nessuna,Nessuna,Non verificato, ,"11044057",Pescara,1998/07/22 00:00:00, ,"1950",C. La Mantia,"22.29272279",{D8E99F5B-FA77-4648-9DCD-8F69D092F290},,"22.3327346623455","49962.6183995613"
"43006",Caldarola,"13.22627038","43.13845473","12907","12785","1",Bassa,Sabbiosa, ,"0",,"0","0","0","0","0",Si,Stabilità,"0","0","0","0","0",Nessuna,Nessuna,Non verificato, ,"11043013",Pescara,1998/07/22 00:00:00, ,"1950",C. La Mantia,"137.86758213",{53D6AB3E-8862-4967-94B3-72329739A705},,"138.097647049303","44024.6237121929"
"43007",Camerino,"13.06766302","43.13536473","23379","23281","2",Opere di difesa costiera-Radente a gettata, , ,"0",,"0","401.9550839","0","0","0",Si,Stabilità,"0","0","0","0","0",Nessuna,Nessuna,Non verificato, ,"11043013",Pescara,1998/07/22 00:00:00, ,"1948",C. La Mantia,"401.28930082",{77C84575-7389-4026-A5F3-81A00AC2876D},,"401.954860534068","55825.3702557598"
"43008",Camporotondo di Fiastrone,"13.26552578","43.13179596","34589","34503","3",Sponde del fiume, , ,"0",,"0","0","0","0","0",No,Nessuna informazione,"0","0","0","0","0",Nessuna,Nessuna,Non verificato, ,"11043013",Pescara,1998/07/22 00:00:00, ,"1950",C. La Mantia,"57.07678164",{31153584-A0A0-46DC-B8E6-ED261BE75A08},,"57.1732287706684","41466.3410679259"
"43009",Castelraimondo,"13.05769967","43.21000258","33873","33867","3",Sponde del fiume, , ,"0",,"0","0","0","0","0",No,Nessuna informazione,"0","0","0","0","0",Nessuna,Nessuna,Non verificato, ,"11042027",Rimini,1998/07/24 00:00:00, ,"1948",C. La Mantia,"487.73076846",{4091BCF8-E3A9-4731-A02D-BA1C66B4F1AB},,"488.359680259304","52960.2447979359"
"43010",Castelsantangelo sul Nera,"13.15307613","42.89447489","9298","9140","1",Bassa,Sabbiosa, ,"0",,"0","0","0","0","0",Si,Erosione,"575.92","10364.64","23","32","0",Nessuna,Nessuna,Non verificato, ,"11044017",Pescara,1999/07/22 00:00:00, ,"1951",C. La Mantia,"576.90598345",{E7C679E2-56F2-45B6-871E-D6AC350E1A67},,"577.959540004425","58600.6985887939"
"43011",Cessapalombo,"13.25840962","43.10910049","32203","32036","3",Collegamento sponde del fiume, , ,"0",,"0","0","0","0","0",No,Nessuna informazione,"0","0","0","0","0",Nessuna,Nessuna,Non verificato, ,"11043013",Pescara,1998/07/22 00:00:00, ,"1950",C. La Mantia,"37.17726356",{4F912AAE-10CC-4510-8368-6B0A6EC7EE91},,"37.2400486971444","43105.9537598589"
"43012",Cingoli,"13.21646831","43.3742808","33870","33864","3",Sponde del fiume, , ,"0",,"0","0","0","0","0",No,Nessuna informazione,"0","0","0","0","0",Nessuna,Nessuna,Non verificato, ,"11042018",Rimini,1998/07/24 00:00:00, ,"1948",C. La Mantia,"589.94656282",{F183291E-5D97-434A-AB6E-2A621827CDA8},,"590.724050385771","30948.1273293733"
"43013",Civitanova Marche,"13.72803","43.30668202","8028","8311","1",Bassa,Sabbiosa, ,"0",,"0","0","0","0","0",Si,Avanzamento,"949.6","49455.84","57.08","88","0",Nessuna,Nessuna,Non verificato, ,"11043013",Pescara,1998/07/22 00:00:00, ,"1950",C. La Mantia,"844.37007545",{57E6B5BA-AFCC-4635-9EFE-14894910279B},,"845.784954393916","0"
"43014",Colmurano,"13.35670534","43.16387163","34589","34503","3",Sponde del fiume, , ,"0",,"0","0","0","0","0",No,Nessuna informazione,"0","0","0","0","0",Nessuna,Nessuna,Non verificato, ,"11043013",Pescara,1998/07/22 00:00:00, ,"1950",C. La Mantia,"57.07678164",{31153584-A0A0-46DC-B8E6-ED261BE75A08},,"57.1732287706684","33228.9300870144"
"43015",Corridonia,"13.50886818","43.24818514","12907","12785","1",Bassa,Sabbiosa, ,"0",,"0","0","0","0","0",Si,Stabilità,"0","0","0","0","0",Nessuna,Nessuna,Non verificato, ,"11043013",Pescara,1998/07/22 00:00:00, ,"1950",C. La Mantia,"137.86758213",{53D6AB3E-8862-4967-94B3-72329739A705},,"138.097647049303","17991.5627999056"
"43016",Esanatoglia,"12.94616909","43.25145608","33873","33867","3",Sponde del fiume, , ,"0",,"0","0","0","0","0",No,Nessuna informazione,"0","0","0","0","0",Nessuna,Nessuna,Non verificato, ,"11042027",Rimini,1998/07/24 00:00:00, ,"1948",C. La Mantia,"487.73076846",{4091BCF8-E3A9-4731-A02D-BA1C66B4F1AB},,"488.359680259304","53580.2721307482"
"43017",Fiastra,"13.1565","43.0368","9640","9466","1",Bassa,Sabbiosa, ,"0",,"0","0","0","0","0",Si,Erosione,"305.02","10926.72","40.82","68","0",Nessuna,Nessuna,Non verificato, ,"11044019",Pescara,1998/07/22 00:00:00, ,"1950",C. La Mantia,"168.61486994",{45B7646D-4AB4-4459-B698-CC00D15A626B},,"168.9091723974","53732.2460027869"
"43019",Fiuminata,"12.93168275","43.18864438","32200","32033","3",Collegamento sponde del fiume, , ,"0",,"0","0","0","0","0",No,Nessuna informazione,"0","0","0","0","0",Nessuna,Nessuna,Non verificato, ,"11042027",Rimini,1998/07/24 00:00:00, ,"1948",C. La Mantia,"4.55214896",{F50471E3-5217-492D-918E-AE246BABD8D2},,"4.55809089939503","60014.6803026732"
"43020",Gagliole,"13.06808297","43.23946186","32200","32033","3",Collegamento sponde del fiume, , ,"0",,"0","0","0","0","0",No,Nessuna informazione,"0","0","0","0","0",Nessuna,Nessuna,Non verificato, ,"11042027",Rimini,1998/07/24 00:00:00, ,"1948",C. La Mantia,"4.55214896",{F50471E3-5217-492D-918E-AE246BABD8D2},,"4.55809089939503","49641.4458320272"
"43021",Gualdo,"13.33794374","43.06735915","9640","9466","1",Bassa,Sabbiosa, ,"0",,"0","0","0","0","0",Si,Erosione,"305.02","10926.72","40.82","68","0",Nessuna,Nessuna,Non verificato, ,"11044019",Pescara,1998/07/22 00:00:00, ,"1950",C. La Mantia,"168.61486994",{45B7646D-4AB4-4459-B698-CC00D15A626B},,"168.9091723974","38682.9552490253"
"43022",Loro Piceno,"13.41619153","43.16610273","32203","32036","3",Collegamento sponde del fiume, , ,"0",,"0","0","0","0","0",No,Nessuna informazione,"0","0","0","0","0",Nessuna,Nessuna,Non verificato, ,"11043013",Pescara,1998/07/22 00:00:00, ,"1950",C. La Mantia,"37.17726356",{4F912AAE-10CC-4510-8368-6B0A6EC7EE91},,"37.2400486971444","28781.3050692989"
"43023",Macerata,"13.45307188","43.30023926","8845","8739","1",Bassa,Sabbiosa, ,"0",,"0","0","0","0","0",Si,Avanzamento,"2370.35","78600.81","38.16","92","0",Nessuna,Nessuna,Non verificato, ,"11043043",Pescara,1998/07/23 00:00:00, ,"1948",C. La Mantia,"484.47031438",{3D058C9F-36DB-48C6-BCB8-5EB865E5A01C},,"485.269468259601","20049.1564313434"
"43024",Matelica,"13.00951788","43.25661381","32200","32033","3",Collegamento sponde del fiume, , ,"0",,"0","0","0","0","0",No,Nessuna informazione,"0","0","0","0","0",Nessuna,Nessuna,Non verificato, ,"11042027",Rimini,1998/07/24 00:00:00, ,"1948",C. La Mantia,"4.55214896",{F50471E3-5217-492D-918E-AE246BABD8D2},,"4.55809089939503","50246.5521292591"
"43025",Mogliano,"13.4808227","43.18600351","32203","32036","3",Collegamento sponde del fiume, , ,"0",,"0","0","0","0","0",No,Nessuna informazione,"0","0","0","0","0",Nessuna,Nessuna,Non verificato, ,"11043013",Pescara,1998/07/22 00:00:00, ,"1950",C. La Mantia,"37.17726356",{4F912AAE-10CC-4510-8368-6B0A6EC7EE91},,"37.2400486971444","23103.767631437"
"43026",Montecassiano,"13.43593734","43.36375365","34592","34506","3",Sponde del fiume, , ,"0",,"0","0","0","0","0",No,Nessuna informazione,"0","0","0","0","0",Nessuna,Nessuna,Non verificato, ,"11043042",Pescara,1998/07/23 00:00:00, ,"1948",C. La Mantia,"636.9887846",{CED70EA0-4B66-4585-BC25-353EB9E99D98},,"638.017759801696","18716.6945340722"
"43027",Monte Cavallo,"13.00115702","42.99356324","9640","9466","1",Bassa,Sabbiosa, ,"0",,"0","0","0","0","0",Si,Erosione,"305.02","10926.72","40.82","68","0",Nessuna,Nessuna,Non verificato, ,"11044019",Pescara,1998/07/22 00:00:00, ,"1950",C. La Mantia,"168.61486994",{45B7646D-4AB4-4459-B698-CC00D15A626B},,"168.9091723974","67286.7263117462"
"43028",Montecosaro,"13.63525257","43.31684668","23379","23281","2",Opere di difesa costiera-Radente a gettata, , ,"0",,"0","401.9550839","0","0","0",Si,Stabilità,"0","0","0","0","0",Nessuna,Nessuna,Non verificato, ,"11043013",Pescara,1998/07/22 00:00:00, ,"1948",C. La Mantia,"401.28930082",{77C84575-7389-4026-A5F3-81A00AC2876D},,"401.954860534068","5445.36650593093"
"43029",Montefano,"13.43975137","43.41191862","32205","32038","3",Collegamento sponde del fiume, , ,"0",,"0","0","0","0","0",No,Nessuna informazione,"0","0","0","0","0",Nessuna,Nessuna,Non verificato, ,"11043042",Pescara,1999/07/24 00:00:00, ,"1948",C. La Mantia,"3.25535903",{9D81DC56-D4E3-4767-B2C9-C1654D28A8BB},,"3.26057836039032","16290.5567364255"
"43030",Montelupone,"13.56712367","43.3443849","11864","11735","1",Bassa,Sabbiosa, ,"0",,"0","0","0","0","0",Si,Stabilità,"0","0","0","0","0",Nessuna,Nessuna,Non verificato, ,"11043043",Pescara,1998/07/23 00:00:00, ,"1948",C. La Mantia,"155.297324",{693B49CB-2CC6-4AF2-BB90-7F174A5818F9},,"155.552027044234","9681.50936439094"
"43031",Monte San Giusto,"13.59427638","43.23601473","32203","32036","3",Collegamento sponde del fiume, , ,"0",,"0","0","0","0","0",No,Nessuna informazione,"0","0","0","0","0",Nessuna,Nessuna,Non verificato, ,"11043013",Pescara,1998/07/22 00:00:00, ,"1950",C. La Mantia,"37.17726356",{4F912AAE-10CC-4510-8368-6B0A6EC7EE91},,"37.2400486971444","12334.8180939397"
"43032",Monte San Martino,"13.43937111","43.03117231","32207","32040","3",Collegamento sponde del fiume, , ,"0",,"0","0","0","0","0",No,Nessuna informazione,"0","0","0","0","0",Nessuna,Nessuna,Non verificato, ,"11044057",Pescara,1998/07/22 00:00:00, ,"1950",C. La Mantia,"22.29272279",{D8E99F5B-FA77-4648-9DCD-8F69D092F290},,"22.3327346623455","32138.3674648005"
"43033",Morrovalle,"13.58002604","43.31468877","11531","11386","1",Bassa,Sabbiosa, ,"0",,"0","0","0","0","0",Si,Nessuna informazione,"0","0","0","0","0",IGM,Nessuna,Non verificato, ,"11043013",Pescara,1998/07/23 00:00:00, ,"1948",C. La Mantia,"166.91460419",{1E0081FF-B649-494F-B63A-83183F1882E1},,"167.19053339697","9751.86804101332"
"43034",Muccia,"13.04405182","43.08209517","9279","9121","1",Bassa,Sabbiosa, ,"0",,"0","0","0","0","0",Si,Erosione,"181.64","4125.45","27.71","40","0",Nessuna,Nessuna,Non verificato, ,"11043013",Pescara,1998/07/22 00:00:00, ,"1950",C. La Mantia,"130.51679425",{CA0B5660-25CE-443B-BD8D-E48460399464},,"130.73387390728","60093.5611145291"
"43035",Penna San Giovanni,"13.42374445","43.05657462","9818","9672","1",Bassa,Sabbiosa, ,"0",,"0","0","0","0","0",Si,Erosione,"489.68","8810.2","22.99","36","0",Nessuna,Nessuna,Non verificato, ,"11044060",Pescara,1998/07/22 00:00:00, ,"1950",C. La Mantia,"495.68561677",{712832FE-4AD7-4212-9484-7F2346DC668D},,"496.557967255977","32530.3840165965"
"43036",Petriolo,"13.46562823","43.22102655","12906","12784","1",Bassa,Sabbiosa, ,"0",,"0","0","0","0","0",Si,Stabilità,"0","0","0","0","0",Nessuna,Nessuna,Non verificato, ,"11043013",Pescara,1998/07/22 00:00:00, ,"1950",C. La Mantia,"478.11132409",{0A3CC2CE-7715-4365-8D44-E4CAF925DBF1},,"478.90983284943","22515.2017147609"
"43038",Pieve Torina,"13.05038725","43.04432836","32203","32036","3",Collegamento sponde del fiume, , ,"0",,"0","0","0","0","0",No,Nessuna informazione,"0","0","0","0","0",Nessuna,Nessuna,Non verificato, ,"11043013",Pescara,1998/07/22 00:00:00, ,"1950",C. La Mantia,"37.17726356",{4F912AAE-10CC-4510-8368-6B0A6EC7EE91},,"37.2400486971444","61487.688962432"
"43039",Pioraco,"12.98484416","43.17878275","32200","32033","3",Collegamento sponde del fiume, , ,"0",,"0","0","0","0","0",No,Nessuna informazione,"0","0","0","0","0",Nessuna,Nessuna,Non verificato, ,"11042027",Rimini,1998/07/24 00:00:00, ,"1948",C. La Mantia,"4.55214896",{F50471E3-5217-492D-918E-AE246BABD8D2},,"4.55809089939503","58741.819568423"
"43040",Poggio San Vicino,"13.07883903","43.37471006","33872","33866","3",Sponde del fiume, , ,"0",,"0","0","0","0","0",No,Nessuna informazione,"0","0","0","0","0",Nessuna,Nessuna,Non verificato, ,"11042027",Rimini,1998/07/24 00:00:00, ,"1948",C. La Mantia,"490.36140819",{B9D11CB9-9B4A-469C-8DD9-F243769B6FE9},,"490.993879710936","36168.602015574"
"43041",Pollenza,"13.34760396","43.26782215","11532","11387","1",Bassa,Sabbiosa, ,"0",,"0","0","0","0","0",Si,Nessuna informazione,"0","0","0","0","0",IGM,Nessuna,Non verificato, ,"11043043",Pescara,1998/07/23 00:00:00, ,"1948",C. La Mantia,"653.48981865",{758D1E9D-7761-4BA7-9DA8-6FE3753DFE18},,"654.569134601029","29310.4110251251"
"43042",Porto Recanati,"13.6648944","43.42983471","7537","7621","1",Bassa,Sabbiosa, ,"0",,"0","0","0","0","0",Si,Avanzamento,"290.63","5298.28","23.23","52","0",Nessuna,Nessuna,Non verificato, ,"11043042",Pescara,1998/07/23 00:00:00, ,"1948",C. La Mantia,"345.90923374",{9210B12C-803A-4E29-88F6-DB6269D337D1},,"346.466983810029","0"
"43043",Potenza Picena,"13.62025852","43.36625779","22994","22925","2",Opere di difesa costiera-Radente a gettata, , ,"0",,"0","1177.13501129","0","0","0",Si,Erosione,"1710.52","30620.11","22.9","40","0",Nessuna,Nessuna,Non verificato, ,"11043043",Pescara,1998/07/23 00:00:00, ,"1948",C. La Mantia,"1175.21391657",{EE530AFC-B6B4-4362-A922-6CD35B613F31},,"1177.13496007499","4818.45832800185"
"43044",Recanati,"13.54883759","43.40383437","34593","34507","3",Sponde del fiume, , ,"0",,"0","0","0","0","0",No,Nessuna informazione,"0","0","0","0","0",Nessuna,Nessuna,Non verificato, ,"11043042",Pescara,1998/07/23 00:00:00, ,"1948",C. La Mantia,"597.21218688",{790B8A32-4133-49B0-81B9-DFD788B5539D},,"598.176307740126","8675.85690394367"
"43045",Ripe San Ginesio,"13.3674957","43.14304895","32203","32036","3",Collegamento sponde del fiume, , ,"0",,"0","0","0","0","0",No,Nessuna informazione,"0","0","0","0","0",Nessuna,Nessuna,Non verificato, ,"11043013",Pescara,1998/07/22 00:00:00, ,"1950",C. La Mantia,"37.17726356",{4F912AAE-10CC-4510-8368-6B0A6EC7EE91},,"37.2400486971444","33489.7251701396"
"43046",San Ginesio,"13.31672887","43.10801114","33445","33374","3",Sponde del fiume, , ,"0",,"0","0","0","0","0",No,Nessuna informazione,"0","0","0","0","0",Nessuna,Nessuna,Non verificato, ,"11044061",Pescara,1998/07/22 00:00:00, ,"1950",C. La Mantia,"24.37375943",{294F2BB8-A900-4E25-8917-2E4021A76849},,"24.4159379872969","38740.9909871909"
"43047",San Severino Marche,"13.17711312","43.22885753","11532","11387","1",Bassa,Sabbiosa, ,"0",,"0","0","0","0","0",Si,Nessuna informazione,"0","0","0","0","0",IGM,Nessuna,Non verificato, ,"11043043",Pescara,1998/07/23 00:00:00, ,"1948",C. La Mantia,"653.48981865",{758D1E9D-7761-4BA7-9DA8-6FE3753DFE18},,"654.569134601029","43831.4046147507"
"43048",Sant'Angelo in Pontano,"13.3954781","43.09929122","9640","9466","1",Bassa,Sabbiosa, ,"0",,"0","0","0","0","0",Si,Erosione,"305.02","10926.72","40.82","68","0",Nessuna,Nessuna,Non verificato, ,"11044019",Pescara,1998/07/22 00:00:00, ,"1950",C. La Mantia,"168.61486994",{45B7646D-4AB4-4459-B698-CC00D15A626B},,"168.9091723974","33044.0049502522"
"43049",Sarnano,"13.30106674","43.035477","9818","9672","1",Bassa,Sabbiosa, ,"0",,"0","0","0","0","0",Si,Erosione,"489.68","8810.2","22.99","36","0",Nessuna,Nessuna,Non verificato, ,"11044060",Pescara,1998/07/22 00:00:00, ,"1950",C. La Mantia,"495.68561677",{712832FE-4AD7-4212-9484-7F2346DC668D},,"496.557967255977","42697.38455351"
"43050",Sefro,"12.94925569","43.14624647","32200","32033","3",Collegamento sponde del fiume, , ,"0",,"0","0","0","0","0",No,Nessuna informazione,"0","0","0","0","0",Nessuna,Nessuna,Non verificato, ,"11042027",Rimini,1998/07/24 00:00:00, ,"1948",C. La Mantia,"4.55214896",{F50471E3-5217-492D-918E-AE246BABD8D2},,"4.55809089939503","63311.752345474"
"43051",Serrapetrona,"13.18937283","43.17691964","23379","23281","2",Opere di difesa costiera-Radente a gettata, , ,"0",,"0","401.9550839","0","0","0",Si,Stabilità,"0","0","0","0","0",Nessuna,Nessuna,Non verificato, ,"11043013",Pescara,1998/07/22 00:00:00, ,"1948",C. La Mantia,"401.28930082",{77C84575-7389-4026-A5F3-81A00AC2876D},,"401.954860534068","44897.0178138516"
"43052",Serravalle di Chienti,"12.9520226","43.07184653","9279","9121","1",Bassa,Sabbiosa, ,"0",,"0","0","0","0","0",Si,Erosione,"181.64","4125.45","27.71","40","0",Nessuna,Nessuna,Non verificato, ,"11043013",Pescara,1998/07/22 00:00:00, ,"1950",C. La Mantia,"130.51679425",{CA0B5660-25CE-443B-BD8D-E48460399464},,"130.73387390728","67323.4081887"
"43053",Tolentino,"13.28429984","43.20872655","23379","23281","2",Opere di difesa costiera-Radente a gettata, , ,"0",,"0","401.9550839","0","0","0",Si,Stabilità,"0","0","0","0","0",Nessuna,Nessuna,Non verificato, ,"11043013",Pescara,1998/07/22 00:00:00, ,"1948",C. La Mantia,"401.28930082",{77C84575-7389-4026-A5F3-81A00AC2876D},,"401.954860534068","36405.5184483239"
"43054",Treia,"13.31230423","43.31128023","34592","34506","3",Sponde del fiume, , ,"0",,"0","0","0","0","0",No,Nessuna informazione,"0","0","0","0","0",Nessuna,Nessuna,Non verificato, ,"11043042",Pescara,1998/07/23 00:00:00, ,"1948",C. La Mantia,"636.9887846",{CED70EA0-4B66-4585-BC25-353EB9E99D98},,"638.017759801696","30199.9142906304"
"43055",Urbisaglia,"13.37679031","43.19704423","12907","12785","1",Bassa,Sabbiosa, ,"0",,"0","0","0","0","0",Si,Stabilità,"0","0","0","0","0",Nessuna,Nessuna,Non verificato, ,"11043013",Pescara,1998/07/22 00:00:00, ,"1950",C. La Mantia,"137.86758213",{53D6AB3E-8862-4967-94B3-72329739A705},,"138.097647049303","30146.8112312216"
"43056",Ussita,"13.13845668","42.9440838","32207","32040","3",Collegamento sponde del fiume, , ,"0",,"0","0","0","0","0",No,Nessuna informazione,"0","0","0","0","0",Nessuna,Nessuna,Non verificato, ,"11044057",Pescara,1998/07/22 00:00:00, ,"1950",C. La Mantia,"22.29272279",{D8E99F5B-FA77-4648-9DCD-8F69D092F290},,"22.3327346623455","58418.4997337264"
"43057",Visso,"13.08830764","42.93075813","32207","32040","3",Collegamento sponde del fiume, , ,"0",,"0","0","0","0","0",No,Nessuna informazione,"0","0","0","0","0",Nessuna,Nessuna,Non verificato, ,"11044057",Pescara,1998/07/22 00:00:00, ,"1950",C. La Mantia,"22.29272279",{D8E99F5B-FA77-4648-9DCD-8F69D092F290},,"22.3327346623455","62771.9276283741"
"43058",Valfornace,"13.0839","43.0649","34589","34503","3",Sponde del fiume, , ,"0",,"0","0","0","0","0",No,Nessuna informazione,"0","0","0","0","0",Nessuna,Nessuna,Non verificato, ,"11043013",Pescara,1998/07/22 00:00:00, ,"1950",C. La Mantia,"57.07678164",{31153584-A0A0-46DC-B8E6-ED261BE75A08},,"57.1732287706684","58028.4954096503"
"44001",Acquasanta Terme,"13.40930458","42.76912283","33785","33716","3",Collegamento sponde del fiume, , ,"0",,"0","0","0","0","0",No,Nessuna informazione,"0","0","0","0","0",Nessuna,Nessuna,Non verificato, ,"13067047",Pescara,1998/04/21 00:00:00, ,"1953",V. Proto,"4.36473772",{A3994D0E-4136-40A1-A5D5-BF56C4781408},,"4.37310207920279","42086.9162382271"
"44002",Acquaviva Picena,"13.8146435","42.94473063","33452","33381","3",Sponde del fiume, , ,"0",,"0","0","0","0","0",No,Nessuna informazione,"0","0","0","0","0",Nessuna,Nessuna,Non verificato, ,"11044066",Pescara,1998/07/25 00:00:00, ,"1953",C. La Mantia,"515.08250395",{3BB316FE-954E-4A4B-B536-57D6A2DE641A},,"516.037048496401","4521.69795099801"
"44005",Appignano del Tronto,"13.66604194","42.89908619","32209","32042","3",Collegamento sponde del fiume, , ,"0",,"0","0","0","0","0",No,Nessuna informazione,"0","0","0","0","0",Nessuna,Nessuna,Non verificato, ,"11044066",Pescara,1998/07/25 00:00:00, ,"1953",C. La Mantia,"2.40246772",{DFF6F56C-F9B6-4A3D-8A45-64DF12D03E3E},,"2.40687556161132","17505.7873213427"
"44006",Arquata del Tronto,"13.29677295","42.77264083","33451","33380","3",Sponde del fiume, , ,"0",,"0","0","0","0","0",No,Nessuna informazione,"0","0","0","0","0",Nessuna,Nessuna,Non verificato, ,"11044066",Pescara,1998/07/25 00:00:00, ,"1953",C. La Mantia,"512.78292823",{C8F03F3B-2BB5-49B9-AA11-987EE6375015},,"513.733248260722","50749.4689929206"
"44007",Ascoli Piceno,"13.57691135","42.85322304","33451","33380","3",Sponde del fiume, , ,"0",,"0","0","0","0","0",No,Nessuna informazione,"0","0","0","0","0",Nessuna,Nessuna,Non verificato, ,"11044066",Pescara,1998/07/25 00:00:00, ,"1953",C. La Mantia,"512.78292823",{C8F03F3B-2BB5-49B9-AA11-987EE6375015},,"513.733248260722","26127.9771481104"
"44010",Carassai,"13.68373044","43.03214724","9330","9185","1",Bassa,Sabbiosa, ,"0",,"0","0","0","0","0",Si,Erosione,"1403.4","34108.97","29.3","48","0",Nessuna,Nessuna,Non verificato, ,"11044029",Pescara,1998/07/22 00:00:00, ,"1951",C. La Mantia,"1233.85675265",{12447C1B-DCE9-41E7-9514-AF29D7D9B9BF},,"1236.0932679534","12978.1002116383"
"44011",Castel di Lama,"13.71289574","42.86891296","33787","33718","3",Collegamento sponde del fiume, , ,"0",,"0","0","0","0","0",No,Nessuna informazione,"0","0","0","0","0",Nessuna,Nessuna,Non verificato, ,"13067047",Pescara,1998/07/25 00:00:00, ,"1953",V. Proto,"33.07997176",{BDA6AC0F-B735-46EC-BBD9-00BF2A5D5B1F},,"33.1421433833716","15426.1984677456"
"44012",Castignano,"13.62155661","42.93806266","12159","11984","1",Bassa,Sabbiosa, ,"0",,"0","0","0","0","0",Si,Stabilità,"0","0","0","0","0",Nessuna,Nessuna,Non verificato, ,"11044023",Pescara,1998/07/25 00:00:00, ,"1953",C. La Mantia,"238.45511564",{95526955-F2CF-4D00-8576-4E6623446169},,"238.893772166697","20238.6591808072"
"44013",Castorano,"13.72762244","42.89833352","33451","33380","3",Sponde del fiume, , ,"0",,"0","0","0","0","0",No,Nessuna informazione,"0","0","0","0","0",Nessuna,Nessuna,Non verificato, ,"11044066",Pescara,1998/07/25 00:00:00, ,"1953",C. La Mantia,"512.78292823",{C8F03F3B-2BB5-49B9-AA11-987EE6375015},,"513.733248260722","12818.9794813397"
"44014",Colli del Tronto,"13.74815942","42.87800984","33787","33718","3",Collegamento sponde del fiume, , ,"0",,"0","0","0","0","0",No,Nessuna informazione,"0","0","0","0","0",Nessuna,Nessuna,Non verificato, ,"13067047",Pescara,1998/07/25 00:00:00, ,"1953",V. Proto,"33.07997176",{BDA6AC0F-B735-46EC-BBD9-00BF2A5D5B1F},,"33.1421433833716","12415.7998361921"
"44015",Comunanza,"13.41391783","42.9575834","9298","9140","1",Bassa,Sabbiosa, ,"0",,"0","0","0","0","0",Si,Erosione,"575.92","10364.64","23","32","0",Nessuna,Nessuna,Non verificato, ,"11044017",Pescara,1999/07/22 00:00:00, ,"1951",C. La Mantia,"576.90598345",{E7C679E2-56F2-45B6-871E-D6AC350E1A67},,"577.959540004425","36265.7274551466"
"44016",Cossignano,"13.68791015","42.98414793","12932","12810","1",Bassa,Sabbiosa, ,"0",,"0","0","0","0","0",Si,Stabilità,"0","0","0","0","0",Nessuna,Nessuna,Non verificato, ,"11044017",Pescara,1999/07/22 00:00:00, ,"1951",C. La Mantia,"967.47673826",{4213F0B1-D1AC-421C-840B-8965B24A4C12},,"969.245779257691","13776.2533311627"
"44017",Cupra Marittima,"13.85901545","43.0250875","6404","6324","1",Bassa,Sabbiosa, ,"0",,"0","0","0","0","0",Si,Avanzamento,"120.53","1214.44","15.08","28","0",Nessuna,Nessuna,Non verificato, ,"11044017",Pescara,1999/07/22 00:00:00, ,"1951",C. La Mantia,"110.19511547",{6339751A-16BC-4673-9175-0BB0B403CE68},,"110.396224325951","0"
"44020",Folignano,"13.63258423","42.82103982","33785","33716","3",Collegamento sponde del fiume, , ,"0",,"0","0","0","0","0",No,Nessuna informazione,"0","0","0","0","0",Nessuna,Nessuna,Non verificato, ,"13067047",Pescara,1998/04/21 00:00:00, ,"1953",V. Proto,"4.36473772",{A3994D0E-4136-40A1-A5D5-BF56C4781408},,"4.37310207920279","23159.996974959"
"44021",Force,"13.49104814","42.9630041","9298","9140","1",Bassa,Sabbiosa, ,"0",,"0","0","0","0","0",Si,Erosione,"575.92","10364.64","23","32","0",Nessuna,Nessuna,Non verificato, ,"11044017",Pescara,1999/07/22 00:00:00, ,"1951",C. La Mantia,"576.90598345",{E7C679E2-56F2-45B6-871E-D6AC350E1A67},,"577.959540004425","29970.6368194923"
"44023",Grottammare,"13.86834111","42.98846372","5943","6127","1",Bassa,Sabbiosa, ,"0",,"0","0","0","0","0",Si,Avanzamento,"326.9","8649.71","31.46","48","0",Nessuna,Nessuna,Non verificato, ,"11044023",Pescara,1998/07/25 00:00:00, ,"1953",C. La Mantia,"98.74855846",{BC1FE877-C093-4555-B8F9-3008CC07C7EF},,"98.9303058657682","0"
"44027",Maltignano,"13.68717844","42.83163236","34744","34633","3",Sponde del fiume, , ,"0",,"0","0","0","0","0",No,Nessuna informazione,"0","0","0","0","0",Nessuna,Nessuna,Non verificato, ,"13067047",Pescara,1998/07/25 00:00:00, ,"1953",V. Proto,"572.13541115",{2929F45B-AB4F-420C-8E34-467D98545E34},,"573.214124742986","18584.7355912223"
"44029",Massignano,"13.79702416","43.05085704","9330","9185","1",Bassa,Sabbiosa, ,"0",,"0","0","0","0","0",Si,Erosione,"1403.4","34108.97","29.3","48","0",Nessuna,Nessuna,Non verificato, ,"11044029",Pescara,1998/07/22 00:00:00, ,"1951",C. La Mantia,"1233.85675265",{12447C1B-DCE9-41E7-9514-AF29D7D9B9BF},,"1236.0932679534","3501.73693153212"
"44031",Monsampolo del Tronto,"13.79095317","42.89746968","32209","32042","3",Collegamento sponde del fiume, , ,"0",,"0","0","0","0","0",No,Nessuna informazione,"0","0","0","0","0",Nessuna,Nessuna,Non verificato, ,"11044066",Pescara,1998/07/25 00:00:00, ,"1953",C. La Mantia,"2.40246772",{DFF6F56C-F9B6-4A3D-8A45-64DF12D03E3E},,"2.40687556161132","8394.97766773691"
"44032",Montalto delle Marche,"13.60713303","42.98736823","9298","9140","1",Bassa,Sabbiosa, ,"0",,"0","0","0","0","0",Si,Erosione,"575.92","10364.64","23","32","0",Nessuna,Nessuna,Non verificato, ,"11044017",Pescara,1999/07/22 00:00:00, ,"1951",C. La Mantia,"576.90598345",{E7C679E2-56F2-45B6-871E-D6AC350E1A67},,"577.959540004425","20143.8549722549"
"44034",Montedinove,"13.5869669","42.97074448","9298","9140","1",Bassa,Sabbiosa, ,"0",,"0","0","0","0","0",Si,Erosione,"575.92","10364.64","23","32","0",Nessuna,Nessuna,Non verificato, ,"11044017",Pescara,1999/07/22 00:00:00, ,"1951",C. La Mantia,"576.90598345",{E7C679E2-56F2-45B6-871E-D6AC350E1A67},,"577.959540004425","22141.4962458466"
"44036",Montefiore dell'Aso,"13.7508984","43.051616","9330","9185","1",Bassa,Sabbiosa, ,"0",,"0","0","0","0","0",Si,Erosione,"1403.4","34108.97","29.3","48","0",Nessuna,Nessuna,Non verificato, ,"11044029",Pescara,1998/07/22 00:00:00, ,"1951",C. La Mantia,"1233.85675265",{12447C1B-DCE9-41E7-9514-AF29D7D9B9BF},,"1236.0932679534","7192.44151133609"
"44038",Montegallo,"13.33299105","42.842195","32209","32042","3",Collegamento sponde del fiume, , ,"0",,"0","0","0","0","0",No,Nessuna informazione,"0","0","0","0","0",Nessuna,Nessuna,Non verificato, ,"11044066",Pescara,1998/07/25 00:00:00, ,"1953",C. La Mantia,"2.40246772",{DFF6F56C-F9B6-4A3D-8A45-64DF12D03E3E},,"2.40687556161132","45442.9940794921"
"44044",Montemonaco,"13.32695984","42.89949543","8625","8496","1",Bassa,Sabbiosa, ,"0",,"0","0","0","0","0",Si,Avanzamento,"1249.21","27683.43","27.16","56","0",Nessuna,Nessuna,Non verificato, ,"11044023",Pescara,1998/07/25 00:00:00, ,"1953",C. La Mantia,"173.5299471",{AB0350F7-32FE-45D1-9A7A-A9F6CAF6CA93},,"173.848886118616","44659.3168451718"
"44045",Monteprandone,"13.83573683","42.92009938","33451","33380","3",Sponde del fiume, , ,"0",,"0","0","0","0","0",No,Nessuna informazione,"0","0","0","0","0",Nessuna,Nessuna,Non verificato, ,"11044066",Pescara,1998/07/25 00:00:00, ,"1953",C. La Mantia,"512.78292823",{C8F03F3B-2BB5-49B9-AA11-987EE6375015},,"513.733248260722","3960.12964261337"
"44054",Offida,"13.691931","42.93519978","33452","33381","3",Sponde del fiume, , ,"0",,"0","0","0","0","0",No,Nessuna informazione,"0","0","0","0","0",Nessuna,Nessuna,Non verificato, ,"11044066",Pescara,1998/07/25 00:00:00, ,"1953",C. La Mantia,"515.08250395",{3BB316FE-954E-4A4B-B536-57D6A2DE641A},,"516.037048496401","14606.9566729003"
"44056",Palmiano,"13.45855304","42.8993202","33452","33381","3",Sponde del fiume, , ,"0",,"0","0","0","0","0",No,Nessuna informazione,"0","0","0","0","0",Nessuna,Nessuna,Non verificato, ,"11044066",Pescara,1998/07/25 00:00:00, ,"1953",C. La Mantia,"515.08250395",{3BB316FE-954E-4A4B-B536-57D6A2DE641A},,"516.037048496401","34052.9816349461"
"44063",Ripatransone,"13.76264711","43.00016638","9298","9140","1",Bassa,Sabbiosa, ,"0",,"0","0","0","0","0",Si,Erosione,"575.92","10364.64","23","32","0",Nessuna,Nessuna,Non verificato, ,"11044017",Pescara,1999/07/22 00:00:00, ,"1951",C. La Mantia,"576.90598345",{E7C679E2-56F2-45B6-871E-D6AC350E1A67},,"577.959540004425","7430.66516160307"
"44064",Roccafluvione,"13.4752157","42.86126733","32209","32042","3",Collegamento sponde del fiume, , ,"0",,"0","0","0","0","0",No,Nessuna informazione,"0","0","0","0","0",Nessuna,Nessuna,Non verificato, ,"11044066",Pescara,1998/07/25 00:00:00, ,"1953",C. La Mantia,"2.40246772",{DFF6F56C-F9B6-4A3D-8A45-64DF12D03E3E},,"2.40687556161132","33664.4866360552"
"44065",Rotella,"13.5609324","42.95452723","12932","12810","1",Bassa,Sabbiosa, ,"0",,"0","0","0","0","0",Si,Stabilità,"0","0","0","0","0",Nessuna,Nessuna,Non verificato, ,"11044017",Pescara,1999/07/22 00:00:00, ,"1951",C. La Mantia,"967.47673826",{4213F0B1-D1AC-421C-840B-8965B24A4C12},,"969.245779257691","24638.0978852046"
"44066",San Benedetto del Tronto,"13.88291098","42.9436327","8651","8522","1",Bassa,Sabbiosa, ,"0",,"0","0","0","0","0",Si,Avanzamento,"1382.24","37500.27","32.13","48","0",Nessuna,Nessuna,Non verificato, ,"11044066",Pescara,1998/07/25 00:00:00, ,"1953",C. La Mantia,"1361.22789053",{D8A543A8-FEE5-4F2F-9A09-B7092786AB29},,"1363.75795596101","0"
"44071",Spinetoli,"13.77341044","42.88933863","32209","32042","3",Collegamento sponde del fiume, , ,"0",,"0","0","0","0","0",No,Nessuna informazione,"0","0","0","0","0",Nessuna,Nessuna,Non verificato, ,"11044066",Pescara,1998/07/25 00:00:00, ,"1953",C. La Mantia,"2.40246772",{DFF6F56C-F9B6-4A3D-8A45-64DF12D03E3E},,"2.40687556161132","10083.6622604279"
"44073",Venarotta,"13.49282294","42.88118491","32209","32042","3",Collegamento sponde del fiume, , ,"0",,"0","0","0","0","0",No,Nessuna informazione,"0","0","0","0","0",Nessuna,Nessuna,Non verificato, ,"11044066",Pescara,1998/07/25 00:00:00, ,"1953",C. La Mantia,"2.40246772",{DFF6F56C-F9B6-4A3D-8A45-64DF12D03E3E},,"2.40687556161132","31699.6804639713"
"109001",Altidona,"13.79441016","43.10672038","34602","34516","3",Sponde del fiume, , ,"0",,"0","0","0","0","0",No,Nessuna informazione,"0","0","0","0","0",Nessuna,Nessuna,Non verificato, ,"11044057",Pescara,1998/07/22 00:00:00, ,"1950",C. La Mantia,"329.39900744",{D0809EF1-5E2F-4CBC-A12C-3AF3F5B2C10B},,"329.990524792261","2324.32240741112"
"109002",Amandola,"13.35571226","42.9804282","34602","34516","3",Sponde del fiume, , ,"0",,"0","0","0","0","0",No,Nessuna informazione,"0","0","0","0","0",Nessuna,Nessuna,Non verificato, ,"11044057",Pescara,1998/07/22 00:00:00, ,"1950",C. La Mantia,"329.39900744",{D0809EF1-5E2F-4CBC-A12C-3AF3F5B2C10B},,"329.990524792261","40294.0380671324"
"109003",Belmonte Piceno,"13.53882338","43.09152184","9818","9672","1",Bassa,Sabbiosa, ,"0",,"0","0","0","0","0",Si,Erosione,"489.68","8810.2","22.99","36","0",Nessuna,Nessuna,Non verificato, ,"11044060",Pescara,1998/07/22 00:00:00, ,"1950",C. La Mantia,"495.68561677",{712832FE-4AD7-4212-9484-7F2346DC668D},,"496.557967255977","22373.3561672521"
"109004",Campofilone,"13.81453865","43.07932883","23386","23288","2",Opere di difesa costiera-Radente a gettata, , ,"0",,"0","98.02205264","0","0","0",Si,Stabilità,"0","0","0","0","0",Nessuna,Nessuna,Non verificato, ,"11044057",Pescara,1998/07/22 00:00:00, ,"1950",C. La Mantia,"97.84508401",{480D4032-EEED-4725-B4C5-88A3C633F3AB},,"98.0220237850317","1602.08624872248"
"109005",Falerone,"13.47390953","43.10783645","9640","9466","1",Bassa,Sabbiosa, ,"0",,"0","0","0","0","0",Si,Erosione,"305.02","10926.72","40.82","68","0",Nessuna,Nessuna,Non verificato, ,"11044019",Pescara,1998/07/22 00:00:00, ,"1950",C. La Mantia,"168.61486994",{45B7646D-4AB4-4459-B698-CC00D15A626B},,"168.9091723974","26719.6596737177"
"109006",Fermo,"13.71839545","43.16058534","8841","8735","1",Bassa,Sabbiosa, ,"0",,"0","0","0","0","0",Si,Avanzamento,"2331.1","104565.13","49.86","84","0",Nessuna,Nessuna,Non verificato, ,"11044060",Pescara,1998/07/22 00:00:00, ,"1950",C. La Mantia,"2338.5649133",{B76EBACA-83E1-4276-826E-03A79B07D1A9},,"2342.66671344722","5994.26243559137"
"109007",Francavilla d'Ete,"13.53995064","43.19100149","12234","12085","1",Bassa,Sabbiosa, ,"0",,"0","0","0","0","0",Si,Stabilità,"0","0","0","0","0",Nessuna,Nessuna,Non verificato, ,"11044061",Pescara,1998/07/22 00:00:00, ,"1950",C. La Mantia,"2233.45606418",{98A50D2D-ADD9-444C-BABB-3A13B38DA173},,"2237.28080525475","18597.6162313686"
"109008",Grottazzolina,"13.60101053","43.1109952","9818","9672","1",Bassa,Sabbiosa, ,"0",,"0","0","0","0","0",Si,Erosione,"489.68","8810.2","22.99","36","0",Nessuna,Nessuna,Non verificato, ,"11044060",Pescara,1998/07/22 00:00:00, ,"1950",C. La Mantia,"495.68561677",{712832FE-4AD7-4212-9484-7F2346DC668D},,"496.557967255977","16860.9159464169"
"109009",Lapedona,"13.77215164","43.10974917","10977","10883","1",Bassa,Sabbiosa, ,"0",,"0","0","0","0","0",Si,Erosione,"2600.64","92344.75","40.51","88","0",Nessuna,Nessuna,Non verificato, ,"11044019",Pescara,1998/07/22 00:00:00, ,"1950",C. La Mantia,"541.50068947",{14BEE869-2D51-442F-90ED-FE690BE03507},,"542.465980466383","3961.01638168272"
"109010",Magliano di Tenna,"13.58621903","43.13858436","9640","9466","1",Bassa,Sabbiosa, ,"0",,"0","0","0","0","0",Si,Erosione,"305.02","10926.72","40.82","68","0",Nessuna,Nessuna,Non verificato, ,"11044019",Pescara,1998/07/22 00:00:00, ,"1950",C. La Mantia,"168.61486994",{45B7646D-4AB4-4459-B698-CC00D15A626B},,"168.9091723974","16952.9467900949"
"109011",Massa Fermana,"13.47564023","43.15041673","33445","33374","3",Sponde del fiume, , ,"0",,"0","0","0","0","0",No,Nessuna informazione,"0","0","0","0","0",Nessuna,Nessuna,Non verificato, ,"11044061",Pescara,1998/07/22 00:00:00, ,"1950",C. La Mantia,"24.37375943",{294F2BB8-A900-4E25-8917-2E4021A76849},,"24.4159379872969","24963.5984753405"
"109012",Monsampietro Morico,"13.55584414","43.0676704","32207","32040","3",Collegamento sponde del fiume, , ,"0",,"0","0","0","0","0",No,Nessuna informazione,"0","0","0","0","0",Nessuna,Nessuna,Non verificato, ,"11044057",Pescara,1998/07/22 00:00:00, ,"1950",C. La Mantia,"22.29272279",{D8E99F5B-FA77-4648-9DCD-8F69D092F290},,"22.3327346623455","22009.786967827"
"109013",Montappone,"13.46935716","43.1355101","33445","33374","3",Sponde del fiume, , ,"0",,"0","0","0","0","0",No,Nessuna informazione,"0","0","0","0","0",Nessuna,Nessuna,Non verificato, ,"11044061",Pescara,1998/07/22 00:00:00, ,"1950",C. La Mantia,"24.37375943",{294F2BB8-A900-4E25-8917-2E4021A76849},,"24.4159379872969","26065.5024678093"
"109014",Montefalcone Appennino,"13.45956774","42.98770102","12931","12809","1",Bassa,Sabbiosa, ,"0",,"0","0","0","0","0",Si,Stabilità,"0","0","0","0","0",Nessuna,Nessuna,Non verificato, ,"11044017",Pescara,1998/07/22 00:00:00, ,"1951",C. La Mantia,"746.53288827",{7B852AD8-3FB6-48C2-A7B0-FC9F56317219},,"747.888755597151","31916.0410302684"
"109015",Montefortino,"13.34123593","42.94264481","9298","9140","1",Bassa,Sabbiosa, ,"0",,"0","0","0","0","0",Si,Erosione,"575.92","10364.64","23","32","0",Nessuna,Nessuna,Non verificato, ,"11044017",Pescara,1999/07/22 00:00:00, ,"1951",C. La Mantia,"576.90598345",{E7C679E2-56F2-45B6-871E-D6AC350E1A67},,"577.959540004425","42414.6560201513"
"109016",Monte Giberto,"13.63086077","43.09128093","10978","10884","1",Bassa,Sabbiosa, ,"0",,"0","0","0","0","0",Si,Erosione,"2600.64","92344.75","40.51","88","0",Nessuna,Nessuna,Non verificato, ,"11044019",Pescara,1998/07/22 00:00:00, ,"1950",C. La Mantia,"1578.7469718",{DFEFFDA5-278A-4AE3-B89B-BFACB9B9D9D1},,"1581.55209882281","15386.1045142232"
"109017",Montegiorgio,"13.53778583","43.13003126","9640","9466","1",Bassa,Sabbiosa, ,"0",,"0","0","0","0","0",Si,Erosione,"305.02","10926.72","40.82","68","0",Nessuna,Nessuna,Non verificato, ,"11044019",Pescara,1998/07/22 00:00:00, ,"1950",C. La Mantia,"168.61486994",{45B7646D-4AB4-4459-B698-CC00D15A626B},,"168.9091723974","20974.7415513154"
"109018",Montegranaro,"13.63259809","43.23338909","12234","12085","1",Bassa,Sabbiosa, ,"0",,"0","0","0","0","0",Si,Stabilità,"0","0","0","0","0",Nessuna,Nessuna,Non verificato, ,"11044061",Pescara,1998/07/22 00:00:00, ,"1950",C. La Mantia,"2233.45606418",{98A50D2D-ADD9-444C-BABB-3A13B38DA173},,"2237.28080525475","9838.53962041563"
"109019",Monteleone di Fermo,"13.5288119","43.04742683","32207","32040","3",Collegamento sponde del fiume, , ,"0",,"0","0","0","0","0",No,Nessuna informazione,"0","0","0","0","0",Nessuna,Nessuna,Non verificato, ,"11044057",Pescara,1998/07/22 00:00:00, ,"1950",C. La Mantia,"22.29272279",{D8E99F5B-FA77-4648-9DCD-8F69D092F290},,"22.3327346623455","24620.2862824037"
"109020",Montelparo,"13.53536974","43.01800088","34602","34516","3",Sponde del fiume, , ,"0",,"0","0","0","0","0",No,Nessuna informazione,"0","0","0","0","0",Nessuna,Nessuna,Non verificato, ,"11044057",Pescara,1998/07/22 00:00:00, ,"1950",C. La Mantia,"329.39900744",{D0809EF1-5E2F-4CBC-A12C-3AF3F5B2C10B},,"329.990524792261","25075.9235140228"
"109021",Monte Rinaldo,"13.58090613","43.02836327","34602","34516","3",Sponde del fiume, , ,"0",,"0","0","0","0","0",No,Nessuna informazione,"0","0","0","0","0",Nessuna,Nessuna,Non verificato, ,"11044057",Pescara,1998/07/22 00:00:00, ,"1950",C. La Mantia,"329.39900744",{D0809EF1-5E2F-4CBC-A12C-3AF3F5B2C10B},,"329.990524792261","21192.781738393"
"109022",Monterubbiano,"13.71643339","43.08540863","32207","32040","3",Collegamento sponde del fiume, , ,"0",,"0","0","0","0","0",No,Nessuna informazione,"0","0","0","0","0",Nessuna,Nessuna,Non verificato, ,"11044057",Pescara,1998/07/22 00:00:00, ,"1950",C. La Mantia,"22.29272279",{D8E99F5B-FA77-4648-9DCD-8F69D092F290},,"22.3327346623455","8768.11643889148"
"109023",Monte San Pietrangeli,"13.57960601","43.19179356","32206","32039","3",Collegamento sponde del fiume, , ,"0",,"0","0","0","0","0",No,Nessuna informazione,"0","0","0","0","0",Nessuna,Nessuna,Non verificato, ,"11044019",Pescara,1998/07/22 00:00:00, ,"1950",C. La Mantia,"6.35626186",{2909ED21-A1AB-49B0-AE78-3F673E8FF1D8},,"6.36722959179929","15465.4489896949"
"109024",Monte Urano,"13.67111477","43.20621776","33445","33374","3",Sponde del fiume, , ,"0",,"0","0","0","0","0",No,Nessuna informazione,"0","0","0","0","0",Nessuna,Nessuna,Non verificato, ,"11044061",Pescara,1998/07/22 00:00:00, ,"1950",C. La Mantia,"24.37375943",{294F2BB8-A900-4E25-8917-2E4021A76849},,"24.4159379872969","7885.46090931098"
"109025",Monte Vidon Combatte,"13.6307128","43.04964723","34602","34516","3",Sponde del fiume, , ,"0",,"0","0","0","0","0",No,Nessuna informazione,"0","0","0","0","0",Nessuna,Nessuna,Non verificato, ,"11044057",Pescara,1998/07/22 00:00:00, ,"1950",C. La Mantia,"329.39900744",{D0809EF1-5E2F-4CBC-A12C-3AF3F5B2C10B},,"329.990524792261","16563.9725411503"
"109026",Monte Vidon Corrado,"13.48448456","43.1213994","9640","9466","1",Bassa,Sabbiosa, ,"0",,"0","0","0","0","0",Si,Erosione,"305.02","10926.72","40.82","68","0",Nessuna,Nessuna,Non verificato, ,"11044019",Pescara,1998/07/22 00:00:00, ,"1950",C. La Mantia,"168.61486994",{45B7646D-4AB4-4459-B698-CC00D15A626B},,"168.9091723974","25385.331558957"
"109027",Montottone,"13.5848093","43.06195742","32207","32040","3",Collegamento sponde del fiume, , ,"0",,"0","0","0","0","0",No,Nessuna informazione,"0","0","0","0","0",Nessuna,Nessuna,Non verificato, ,"11044057",Pescara,1998/07/22 00:00:00, ,"1950",C. La Mantia,"22.29272279",{D8E99F5B-FA77-4648-9DCD-8F69D092F290},,"22.3327346623455","19806.2747553684"
"109028",Moresco,"13.73244476","43.08571288","32207","32040","3",Collegamento sponde del fiume, , ,"0",,"0","0","0","0","0",No,Nessuna informazione,"0","0","0","0","0",Nessuna,Nessuna,Non verificato, ,"11044057",Pescara,1998/07/22 00:00:00, ,"1950",C. La Mantia,"22.29272279",{D8E99F5B-FA77-4648-9DCD-8F69D092F290},,"22.3327346623455","7479.59067089666"
"109029",Ortezzano,"13.607496","43.03158001","34602","34516","3",Sponde del fiume, , ,"0",,"0","0","0","0","0",No,Nessuna informazione,"0","0","0","0","0",Nessuna,Nessuna,Non verificato, ,"11044057",Pescara,1998/07/22 00:00:00, ,"1950",C. La Mantia,"329.39900744",{D0809EF1-5E2F-4CBC-A12C-3AF3F5B2C10B},,"329.990524792261","19045.6570643164"
"109030",Pedaso,"13.84092095","43.09802475","9806","9610","1",Bassa,Sabbiosa, ,"0",,"0","0","0","0","0",Si,Erosione,"611.2","9430.06","20.43","48","0",Nessuna,Nessuna,Non verificato, ,"11044057",Pescara,1998/07/22 00:00:00, ,"1950",C. La Mantia,"91.26122316",{5D2A3C6E-DD61-43D2-92F9-5D4CD163C241},,"91.4259323309609","0"
"109031",Petritoli,"13.65616614","43.06699367","32207","32040","3",Collegamento sponde del fiume, , ,"0",,"0","0","0","0","0",No,Nessuna informazione,"0","0","0","0","0",Nessuna,Nessuna,Non verificato, ,"11044057",Pescara,1998/07/22 00:00:00, ,"1950",C. La Mantia,"22.29272279",{D8E99F5B-FA77-4648-9DCD-8F69D092F290},,"22.3327346623455","14014.9717940941"
"109032",Ponzano di Fermo,"13.65864462","43.10192109","10978","10884","1",Bassa,Sabbiosa, ,"0",,"0","0","0","0","0",Si,Erosione,"2600.64","92344.75","40.51","88","0",Nessuna,Nessuna,Non verificato, ,"11044019",Pescara,1998/07/22 00:00:00, ,"1950",C. La Mantia,"1578.7469718",{DFEFFDA5-278A-4AE3-B89B-BFACB9B9D9D1},,"1581.55209882281","12846.721651738"
"109033",Porto San Giorgio,"13.79638847","43.18444175","8841","8735","1",Bassa,Sabbiosa, ,"0",,"0","0","0","0","0",Si,Avanzamento,"2331.1","104565.13","49.86","84","0",Nessuna,Nessuna,Non verificato, ,"11044060",Pescara,1998/07/22 00:00:00, ,"1950",C. La Mantia,"2338.5649133",{B76EBACA-83E1-4276-826E-03A79B07D1A9},,"2342.66671344722","0"
"109034",Porto Sant'Elpidio,"13.75807173","43.25798509","10264","10145","1",Bassa,Sabbiosa, ,"0",,"0","0","0","0","0",Si,Erosione,"2263.11","45161.95","24.96","44","0",Nessuna,Nessuna,Non verificato, ,"11044061",Pescara,1998/07/22 00:00:00, ,"1950",C. La Mantia,"1391.18634684",{8D1A0347-5F70-42B1-AA6A-7382F38B8D4E},,"1393.58200823622","0"
"109035",Rapagnano,"13.59280287","43.16100943","9640","9466","1",Bassa,Sabbiosa, ,"0",,"0","0","0","0","0",Si,Erosione,"305.02","10926.72","40.82","68","0",Nessuna,Nessuna,Non verificato, ,"11044019",Pescara,1998/07/22 00:00:00, ,"1950",C. La Mantia,"168.61486994",{45B7646D-4AB4-4459-B698-CC00D15A626B},,"168.9091723974","15651.1553720367"
"109036",Santa Vittoria in Matenano,"13.49672144","43.01995193","34602","34516","3",Sponde del fiume, , ,"0",,"0","0","0","0","0",No,Nessuna informazione,"0","0","0","0","0",Nessuna,Nessuna,Non verificato, ,"11044057",Pescara,1998/07/22 00:00:00, ,"1950",C. La Mantia,"329.39900744",{D0809EF1-5E2F-4CBC-A12C-3AF3F5B2C10B},,"329.990524792261","27982.3017308133"
"109037",Sant'Elpidio a Mare,"13.6865342","43.22916559","12234","12085","1",Bassa,Sabbiosa, ,"0",,"0","0","0","0","0",Si,Stabilità,"0","0","0","0","0",Nessuna,Nessuna,Non verificato, ,"11044061",Pescara,1998/07/22 00:00:00, ,"1950",C. La Mantia,"2233.45606418",{98A50D2D-ADD9-444C-BABB-3A13B38DA173},,"2237.28080525475","5965.36599275698"
"109038",Servigliano,"13.4921849","43.08078103","9818","9672","1",Bassa,Sabbiosa, ,"0",,"0","0","0","0","0",Si,Erosione,"489.68","8810.2","22.99","36","0",Nessuna,Nessuna,Non verificato, ,"11044060",Pescara,1998/07/22 00:00:00, ,"1950",C. La Mantia,"495.68561677",{712832FE-4AD7-4212-9484-7F2346DC668D},,"496.557967255977","26343.5770635244"
"109039",Smerillo,"13.44547478","43.00445155","34602","34516","3",Sponde del fiume, , ,"0",,"0","0","0","0","0",No,Nessuna informazione,"0","0","0","0","0",Nessuna,Nessuna,Non verificato, ,"11044057",Pescara,1998/07/22 00:00:00, ,"1950",C. La Mantia,"329.39900744",{D0809EF1-5E2F-4CBC-A12C-3AF3F5B2C10B},,"329.990524792261","32495.1161894943"
"109040",Torre San Patrizio,"13.60753129","43.18445404","33445","33374","3",Sponde del fiume, , ,"0",,"0","0","0","0","0",No,Nessuna informazione,"0","0","0","0","0",Nessuna,Nessuna,Non verificato, ,"11044061",Pescara,1998/07/22 00:00:00, ,"1950",C. La Mantia,"24.37375943",{294F2BB8-A900-4E25-8917-2E4021A76849},,"24.4159379872969","13581.900680605"
